CUE,Nombre,Departamento,Provincia,Fecha,Latitud,Longitud,Status,Servicios,
380094204,380094204 - ESCUELA SECUNDARIA RURAL N 2,HUMAHUACA,Jujuy,03/02/17,-23.18545000,-65.27486000,Completada,Internet Satelital + TV Digital Satelital + EduTac
380094205,380094205 - ESCUELA SECUNDARIA RURAL N 2,HUMAHUACA,Jujuy,04/02/17,-23.05166700,-65.20788300,Completada,Internet Satelital + TV Digital Satelital + EduTac
180027900,180027900 ESCUELA Nro. 925 GOBERNADOR ELIAS GALVAN - CURUZ CUATIA,CURUZU CUATIA,Corrientes,07/02/17,-29.63529000,-58.61271800,Completada,Internet Satelital + TV Digital Satelital + EduTac
380026300,380026300 ESCUELA N 372 JUSTO EUSTAQUIO MAMANI,COCHINOCA,Jujuy,07/02/17,-22.88448300,-65.81095000,Completada,Internet Satelital + TV Digital Satelital + EduTac
380080600,380080600 - COLEGIO SECUNDARIO N 19,HUMAHUACA,Jujuy,07/02/17,-22.98860000,-66.03106500,Completada,Internet Satelital + TV Digital Satelital + EduTac
380031800,380031800 ESCUELA N 344 HERMOGENES CAYO,COCHINOCA,Jujuy,08/02/17,-22.83001000,-65.87345100,Completada,Internet Satelital + TV Digital Satelital + EduTac
380080500,380080500 COLEGIO SECUNDARIO N 22,COCHINOCA,Jujuy,08/02/17,-22.74593300,-65.89728300,Completada,Internet Satelital + TV Digital Satelital + EduTac
180028100,180028100 ESCUELA Nro. 334 GRAL.JOSE MATIAS ZAPIOLA - CURUZU CUATIA,CURUZU CUATIA,Corrientes,09/02/17,-29.52263500,-58.55025300,Completada,Internet Satelital + TV Digital Satelital + EduTac
380032100,380032100 ESCUELA N 43,COCHINOCA,Jujuy,10/02/17,-22.77560000,-66.02158300,Completada,Internet Satelital + TV Digital Satelital + EduTac
180032200,180032200 ESCUELA Nro. 339 - CURUZU CUATIA,CURUZU CUATIA,Corrientes,10/02/17,-29.36195000,-58.58738100,Completada,Internet Satelital + TV Digital Satelital + EduTac
380031700,380031700 ESCUELA N 324 SARG. CRISTINO EUFRACIO ROJAS,COCHINOCA,Jujuy,13/02/17,-22.83485000,-66.07550000,Completada,Internet Satelital + TV Digital Satelital + EduTac
380026400,380026400 ESCUELA N 72,COCHINOCA,Jujuy,13/02/17,-22.89687000,-65.96247500,Completada,Internet Satelital + TV Digital Satelital + EduTac
380031600,380031600 ESCUELA N 345,COCHINOCA,Jujuy,14/02/17,-22.69856000,-66.13023700,Completada,Internet Satelital + TV Digital Satelital + EduTac
380065600,380065600 - COLEGIO POLIMODAL N 4,RINCONADA,Jujuy,15/02/17,-22.44083000,-66.16639700,Completada,Internet Satelital + TV Digital Satelital + EduTac
180007200,180007200 ESCUELA Nro. 584 GENERAL SAN MARTIN - MERCEDES,MERCEDES,Corrientes,15/02/17,-28.64588400,-57.58243100,Completada,Internet Satelital + TV Digital Satelital + EduTac
380092503,380092503 - ESCUELA RURAL N 1 - SANTO DOMINGO,RINCONADA,Jujuy,15/02/17,-22.54208000,-66.22257000,Completada,Internet Satelital + TV Digital Satelital + EduTac
380092506,380092506 - ESCUELA RURAL N 1 - PAICONE,SANTA CATALINA,Jujuy,16/02/17,-22.21935000,-66.42623700,Completada,Internet Satelital + TV Digital Satelital + EduTac
180109900,180109900 ESCUELA Nro. 862 - CARLOS PELLEGRINI - MERCEDES,SAN MARTIN,Corrientes,16/02/17,-28.53707200,-57.09877400,Completada,Internet Satelital + TV Digital Satelital + EduTac
380092511,380092511 - ESCUELA  RURAL N 1 - LIVIARA,RINCONADA,Jujuy,16/02/17,-22.52044000,-66.33801200,Completada,Internet Satelital + TV Digital Satelital + EduTac
380092504,380092504 - ESCUELA RURAL N 1 - LOMA BLANCA,RINCONADA,Jujuy,16/02/17,-22.47038000,-66.48411000,Completada,Internet Satelital + TV Digital Satelital + EduTac
"380075200,""380075200 - COLEGIO SECUNDARIO N 8 """"HEROES DE MALVINAS"""""",RINCONADA,Jujuy,17/02/17,-22.46243000,-66.62878000,Completada,Internet Satelital + TV Digital Satelital + EduTac"
380032200,380032200 ESCUELA N 71,COCHINOCA,Jujuy,20/02/17,-22.68009000,-65.97238000,Completada,Internet Satelital + TV Digital Satelital + EduTac
380092508,380092508 - ESCUELA RURAL N 1 - HUANCAR,SUSQUES,Jujuy,21/02/17,-23.56378000,-66.41016600,Completada,Internet Satelital + TV Digital Satelital + EduTac
380051400,380051400 ESCUELA N 290,COCHINOCA,Jujuy,21/02/17,-23.16911000,-65.79399000,Completada,Internet Satelital + TV Digital Satelital + EduTac
380025800,380025800 ESCUELA N 355,COCHINOCA,Jujuy,21/02/17,-22.10117000,-65.76283000,Completada,Internet Satelital + TV Digital Satelital + EduTac
380077300,380077300 - COLEGIO SECUNDARIO N 13,COCHINOCA,Jujuy,22/02/17,-23.34191000,-66.09004900,Completada,Internet Satelital + TV Digital Satelital + EduTac
380051000,380051000 ESCUELA N 128 LEOPOLDO LUGONES,COCHINOCA,Jujuy,24/02/17,-23.38471000,-65.95735000,Completada,Internet Satelital + TV Digital Satelital + EduTac
380094209,380094209 - ESCUELA SECUNDARIA RURAL N 2,SUSQUES,Jujuy,24/02/17,-23.39335300,-66.80267100,Completada,Internet Satelital + TV Digital Satelital + EduTac
180092400,180092400 ESCUELA Nro. 96 REMEDIOS ESCALADA - PASO DE LOS LIBRES,PASO DE LOS LIBRES,Corrientes,24/02/17,-29.74722840,-57.55324840,Completada,Internet Satelital + TV Digital Satelital + EduTac
380090000,380090000 - COLEGIO SECUNDARIO N 50,COCHINOCA,Jujuy,24/02/17,-23.53323000,-65.96353700,Completada,Internet Satelital + TV Digital Satelital + EduTac
380094210,380094210 - ESCUELA SECUNDARIA RURAL N 2,SUSQUES,Jujuy,02/03/17,-23.08360800,-66.70129300,Completada,Internet Satelital + TV Digital Satelital + EduTac
380094201,380094201 - ESCUELA SECUNDARIA RURAL N 2,HUMAHUACA,Jujuy,02/03/17,-23.17312000,-65.15854700,Completada,Internet Satelital + TV Digital Satelital + EduTac
380092507,380092507 - ESCUELA RURAL N 1 - QUEBRALENA,COCHINOCA,Jujuy,03/03/17,-23.28580556,-65.77005556,Completada,Internet Satelital + TV Digital Satelital + EduTac
380092501,380092501 - ESCUELA RURAL N 1 - LOBATON,SAN PEDRO,Jujuy,03/03/17,-24.39871000,-64.83396200,Completada,Internet Satelital + TV Digital Satelital + EduTac
540025701,540025701 AULA SAT. Nro. 1: ESC. Nro. 216,SAN JAVIER,Misiones,03/03/17,-27.63335000,-55.12660000,Completada,Internet Satelital + TV Digital Satelital + EduTac
540121500,540121500 ESCUELA DE FRONTERA JORNADA COMPLETA FORTÍN DE MBORORÉ,Iguazú,Misiones,06/03/17,-25.83838333,-54.53463333,Completada,Internet Satelital + TV Digital Satelital + Edu
380051100,380051100 ESCUELA N 325 INDEPENDENCIA,COCHINOCA,Jujuy,08/03/17,-23.20503530,-65.35004060,Completada,Internet Satelital + TV Digital Satelital + EduTac
380026000,380026000 ESCUELA N 154,COCHINOCA,Jujuy,08/03/17,-22.97058000,-65.87645700,Completada,Internet Satelital + TV Digital Satelital + EduTac
380077100,380077100 - COLEGIO DE NIVEL SECUNDARIO N 11,COCHINOCA,Jujuy,08/03/17,-23.19096300,-65.98906900,Completada,Internet Satelital + TV Digital Satelital + EduTac
540160300,540160300 ESCUELA Nro. 95,Guaraní,Misiones,08/03/17,-27.42190000,-54.28052400,Completada,Internet Satelital + TV Digital Satelital + EduTa
860071300,860071300 ESCUELA Nro.  1165,JIMENEZ,Santiago del Estero,08/03/17,-26.81428040,-63.92223669,Completada,Internet Satelital + TV Digital Satelital + EduTac
540011700,540011700 ESC. Nro. 533: BERNARDO DE MONTEAGUDO,GUARANI,Misiones,09/03/17,-27.17324300,-54.27030500,Completada,Internet Satelital + TV Digital Satelital + EduTac
540011601,540011601 AULA SAT. Nro. 01: ESC. Nro. 618,GUARANI,Misiones,10/03/17,-27.26400600,-54.11235290,Completada,Internet Satelital + TV Digital Satelital + EduTac
860070300,860070300 ESCUELA Nro.  320,JIMENEZ,Santiago del Estero,10/03/17,-26.68670000,-64.45268333,Completada,Internet Satelital + TV Digital Satelital + EduTac
860147600,860147600 ESCUELA Nro.  470,JIMENEZ,Santiago del Estero,10/03/17,-28.07953151,-64.04107535,Completada,Internet Satelital + TV Digital Satelital + EduTac
380094208,380094208 - ESCUELA SECUNDARIA RURAL N 2,YAVI,Jujuy,10/03/17,-23.21779000,-65.80674300,Completada,Internet Satelital + TV Digital Satelital + EduTac
540057400,540057400 ESC. Nro. 561: GABRIELA MISTRAL,GUARANI,Misiones,13/03/17,-27.25380000,-54.28666667,Completada,Internet Satelital + TV Digital Satelital + EduTac
540002700,540002700 ESC. Nro. 477: ALTO URUGUAY,GUARANI,Misiones,13/03/17,-27.43348700,-55.57897100,Completada,Internet Satelital + TV Digital Satelital + EduTac
860146903,860146903 AGRUPAMIENTO 86031 ESC. Nro.  280,JIMENEZ,Santiago del Estero,13/03/17,-27.15085000,-64.65185000,Completada,Internet Satelital + TV Digital Satelital + EduTac
860146905,860146905 AGRUPAMIENTO 8631 ESC. Nro.  5,JIMENEZ,Santiago del Estero,13/03/17,-27.05431100,-64.46757600,Completada,Internet Satelital + TV Digital Satelital + EduTac
540011900,540011900 ESC. Nro. 65: BARRANCAS DEL URUGUAY (F.J.C.),GUARANI,Misiones,14/03/17,-27.26518310,-55.49201130,Completada,Internet Satelital + TV Digital Satelital + EduTac
860146904,860146904 AGRUPAMIENTO 86031 ESC. Nro.  1091,JIMENEZ,Santiago del Estero,14/03/17,-27.11221500,-64.37319200,Completada,Internet Satelital + TV Digital Satelital + EduTac
860214504,860214504 AGRUPAMIENTO Nro. 86036 ESC Nro. 621,JIMENEZ,Santiago del Estero,14/03/17,-26.86764000,-64.45946000,Completada,Internet Satelital + TV Digital Satelital + EduTac
860214501,860214501 AGRUPAMIENTO Nro. 86036 ESC Nro. 391,JIMENEZ,Santiago del Estero,14/03/17,-26.88659000,-64.60396000,Completada,Internet Satelital + TV Digital Satelital + EduTac
860146901,860146901 AGRUPAMIENTO 86031 ESC. Nro.  324,JIMENEZ,Santiago del Estero,14/03/17,-27.15113000,-64.60308000,Completada,Internet Satelital + TV Digital Satelital + EduTac
"540076200,""540076200 ESCUELA Nro. 683 """"BILINGUE YAKA PA´"""""",25 de mayo,Misiones,15/03/17,-27.37360000,-54.73946667,Completada,Internet Satelital + TV Digital Satelital + EduTac"
540011701,540011701 AULA SAT. Nro. 01: ESC. Nro. 533,GUARANI,Misiones,15/03/17,-27.28454977,-54.09624682,Completada,Internet Satelital + TV Digital Satelital + EduTac
860146902,860146902 AGRUPAMIENTO 86031 ESC. Nro.  1100,JIMENEZ,Santiago del Estero,15/03/17,-27.03210159,-64.61133868,Completada,Internet Satelital + TV Digital Satelital + EduTac
860071900,860071900 ESCUELA Nro.  1035,JIMENEZ,Santiago del Estero,15/03/17,-26.60795331,-63.66980847,Completada,Internet Satelital + TV Digital Satelital + EduTac
540022000,540022000 ESCUELA DE EDUCACIÓN INTERCULTURAL BILINGUE Nro. 44,San Ignacio,Misiones,16/03/17,-27.62484070,-55.08448710,Completada,Internet Satelital + TV Digital Satelital + EduTa
540007300,540007300 ESCUELA Nro. 166,Candelaria,Misiones,16/03/17,-27.25621197,-54.14807870,Completada,Internet Satelital + TV Digital Satelital + EduTac
860072000,860072000 ESCUELA Nro.  693,JIMENEZ,Santiago del Estero,16/03/17,-28.05242553,-63.86404892,Completada,Internet Satelital + TV Digital Satelital + EduTac
860172600,860172600 ESCUELA Nro.  918,JIMENEZ,Santiago del Estero,17/03/17,-28.25457174,-63.57351193,Completada,Internet Satelital + TV Digital Satelital + EduTac
380094206,380094206 - ESCUELA SECUNDARIA RURAL N 2,VALLE GRANDE,Jujuy,23/03/17,-23.36325000,-65.09260000,Completada,Internet Satelital + TV Digital Satelital + EduTac
380083800,380083800 - COLEGIO SECUNDARIO N 31,VALLE GRANDE,Jujuy,23/03/17,-23.35551000,-64.98925500,Completada,Internet Satelital + TV Digital Satelital + EduTac
860055900,860055900 ESCUELA Nro.  806 AMERICA GONZALEZ DE RISSO PATRON,COPO,Santiago del Estero,29/03/17,-25.87233327,-63.57166677,Completada,Internet Satelital + TV Digital Satelital + EduTac
860210501,860210501 AGRUPAMIENTO Nro. 86063 - ESCUELA Nro.  1143,COPO,Santiago del Estero,30/03/17,-26.17513047,-63.62754921,Completada,Internet Satelital + TV Digital Satelital + EduTac
860210500,860210500 AGRUPAMIENTO 86063 -  SEDE ESC Nro. 806,COPO,Santiago del Estero,30/03/17,-26.12259136,-63.63586024,Completada,Internet Satelital + TV Digital Satelital + EduTac
860211200,860211200 AGRUPAMIENTO Nro. 86019  ESC Nro. 872,PELLEGRINI,Santiago del Estero,31/03/17,-26.14611000,-63.76474000,Completada,Internet Satelital + TV Digital Satelital + EduTac
660018000,660018000 GABRIEL DE GÜEMES MONTERO EX Nro.  515,ROSARIO DE LERMA,Salta,03/04/17,-24.35151028,-66.02459419,Completada,Internet Satelital + TV Digital Satelital + EduTa
380026500,380026500 - ESCUELA N 389 PASO DE LOS ANDES,SUSQUES,Jujuy,04/04/17,-23.87081000,-67.00444400,Completada,Internet Satelital + TV Digital Satelital + EduTac
660054100,660054100 ESCUELA Nro. 4683 SAN JOSE PROTECTOR DE LA FAMILIA EX Nro. 948,LA POMA,Salta,04/04/17,-23.81713321,-66.23463594,Completada,Internet Satelital + TV Digital Satelital + EduTac
100081501,100081501 ESCUELA Nro. 47,CAPAYAN,Catamarca,04/04/17,-29.22132430,-65.77554650,Completada,Internet Satelital + TV Digital Satelital + EduTac
660018100,660018100 CRUCERO ARA GENERAL  MANUEL BELGRANO EX Nro.  621,ROSARIO DE LERMA,Salta,05/04/17,-24.39326000,-65.76831000,Completada,Internet Satelital + TV Digital Satelital + EduTac
100079401,100079401 ESCUELA Nro.  179,CAPAYAN,Catamarca,05/04/17,-28.85978980,-66.22954160,Completada,Internet Satelital + TV Digital Satelital + EduTac
100087100,100087100 ESCUELA SECUNDARIA RURAL Nro. 9,CAPAYAN,Catamarca,05/04/17,-28.56904780,-65.83958970,Completada,Internet Satelital + TV Digital Satelital + EduTac
660002400,660002400 ESC. PRIMARIA Nro.  465,San Carlos,Salta,06/04/17,-25.77185167,-66.26753000,Completada,Internet Satelital + TV Digital Satelital + EduTac
460003700,460003700 ESC.Nro. 232 BRIGIDA RAMIREZ DE DE LA VEGA,CAPITAL,La Rioja,06/04/17,-29.71752540,-65.95907350,Completada,Internet Satelital + TV Digital Satelital + EduTac
380094214,380094214 389004214 - ESCUELA SECUNDARIA RURAL N 2 - LAGUNA DE TESORERO,DOCTOR MANUEL BELGRANO,Jujuy,06/04/17,-24.26844000,-65.38330600,Completada,Internet Satelital + TV Digital Satelital + EduTac
660013400,660013400 EX COMBATIENTES DE MALVINAS EX Nro.  62,GUACHIPAS,Salta,07/04/17,-24.63884000,-63.64160000,Completada,Internet Satelital + TV Digital Satelital + EduTac
460003900,460003900 ESC.Nro. 314 DR.TOMAS MANUEL DE ANCHORENA,CAPITAL,La Rioja,07/04/17,-29.62919600,-66.09731600,Completada,Internet Satelital + TV Digital Satelital + EduTac
460003100,460003100 ESC.Nro. 201 JUAN FRANCISCO CARRIZO,CAPITAL,La Rioja,07/04/17,-29.22165120,-65.97403760,Completada,Internet Satelital + TV Digital Satelital + EduTac
380052700,380052700 ESCUELA N 187,COCHINOCA,Jujuy,11/04/17,-22.84822000,-66.16140100,Completada,Internet Satelital + TV Digital Satelital + EduTac
380051600,380051600 ESCUELA N 121 INGENIEROS ARGENTINOS,COCHINOCA,Jujuy,11/04/17,-22.83780000,-66.01100000,Completada,Internet Satelital + TV Digital Satelital + EduTac
380052600,380052600 ESCUELA N 331,COCHINOCA,Jujuy,12/04/17,-22.78292000,-65.53527100,Completada,Internet Satelital + TV Digital Satelital + EduTac
860070400,860070400 ESCUELA Nro.  370,JIMENEZ,Santiago del Estero,17/04/17,-26.58329600,-64.40478400,Completada,Internet Satelital + TV Digital Satelital + EduTac
860070800,860070800 ESCUELA Nro.  976,JIMENEZ,Santiago del Estero,18/04/17,-26.58343333,-64.40266667,Completada,Internet Satelital + TV Digital Satelital + EduTac
460002900,460002900 ESC.Nro. 167,CAPITAL,La Rioja,18/04/17,-29.44850290,-66.00956710,Completada,Internet Satelital + TV Digital Satelital + EduTac
860208904,860208904 AGRUPAMIENTO Nro. 86077 - ESC Nro.  392,MORENO,Santiago del Estero,19/04/17,-26.70613273,-63.56699573,Completada,Internet Satelital + TV Digital Satelital + EduTac
860083600,860083600 ESCUELA Nro.  417 CABO MARIO RAMON LUNA,FIGUEROA,Santiago del Estero,19/04/17,-27.21250000,-63.53026000,Completada,Internet Satelital + TV Digital Satelital + EduTac
860208905,860208905 AGRUPAMIENTO Nro. 86077 - ESC Nro.  938,MORENO,Santiago del Estero,19/04/17,-27.01801296,-63.22947928,Completada,Internet Satelital + TV Digital Satelital + EduTac
140237100,140237100 ESCUELA JOSE MANUEL ESTRADA,CALAMUCHITA,Córdoba,19/04/17,-32.30796910,-64.66939380,Completada,Internet Satelital + TV Digital Satelital + EduTa
100004802,100004802 ESCUELA Nro.  295 GRAL JULIO A.ROCA,POMAN,Catamarca,19/04/17,-28.22171350,-66.14389140,Completada,Internet Satelital + TV Digital Satelital + EduTac
860071200,860071200 ESCUELA Nro.  1163,JIMENEZ,Santiago del Estero,20/04/17,-26.69376062,-63.68457478,Completada,Internet Satelital + TV Digital Satelital + EduTac
460074200,460074200 ESC.Nro. 358 JUAN JULIO IBAÑEZ,CAPITAL,La Rioja,20/04/17,-29.48494020,-66.26389900,Completada,Internet Satelital + TV Digital Satelital + EduTa
140237300,140237300 ESCUELA LEOPOLDO LUGONES,CALAMUCHITA,Córdoba,20/04/17,-32.31851653,-64.74753818,Completada,Internet Satelital + TV Digital Satelital + EduTa
100000000,100000000 EDUCAR SOCIEDAD DE ESTADO,CABA,CABA,20/04/17,-34.54185800,-58.46364400,Completada,Internet Satelital + TV Digital Satelital + EduTac
380029400,380029400 ESCUELA N 334,COCHINOCA,Jujuy,24/04/17,-22.49441000,-65.64185200,Completada,Internet Satelital + TV Digital Satelital + EduTac
660013800,660013800 ESC. PRIMARIA Nro.  4264,Anta,Salta,25/04/17,-24.06741018,-66.09974263,Completada,Internet Satelital + TV Digital Satelital + EduTac
140012500,140012500 ESCUELA LEANDRO ALEM,Calamuchita,Córdoba,25/04/17,-32.35723169,-64.85172175,Completada,Internet Satelital + TV Digital Satelital + EduTa
660013900,660013900 ESC. PRIMARIA Nro.  461,Anta,Salta,26/04/17,-24.63670000,-63.63818333,Completada,Internet Satelital + TV Digital Satelital + EduTac
660131400,660131400 ESC. PRIMARIA Nro.  4766 DR. MARIO JULIO ELSZTAIN,RIVADAVIA,Salta,26/04/17,-24.71739451,-63.04421303,Completada,Internet Satelital + TV Digital Satelital + EduTac
660093900,660093900 ESCUELA Nro. 4677 JESUS MISERICORDIOSO EX Nro.  94,RIVADAVIA,Salta,26/04/17,-23.04591000,-62.61316000,Completada,Internet Satelital + TV Digital Satelital + EduTac
180103600,180103600 ESCUELA Nro. 768 MARGARITA A. DE IRASTORZA - MERCEDES,MERCEDES,Corrientes,27/04/17,-29.47120000,-57.58260100,Completada,Internet Satelital + TV Digital Satelital + EduTac
660111600,660111600 SCUELA Nro. 4238 EL TOTORAL EX Nro.  369,RIVADAVIA,Salta,27/04/17,-21.99944000,-62.82385000,Completada,Internet Satelital + TV Digital Satelital + EduTac
660048700,660048700 ESCUELA Nro. 4248 EX Nro.  382,RIVADAVIA,Salta,27/04/17,-23.74740000,-63.16390000,Completada,Internet Satelital + TV Digital Satelital + EduTac
"180009800,""180009800 ESCUELA Nro. 466 DON ANGEL MARTINEZ"""""""""",ESQUINA,Corrientes,28/04/17,-29.70224000,-59.07643000,Completada,Internet Satelital + TV Digital Satelital + EduTac"
380094213,380094213 380094213 - ESCUELA SECUNDARIA RURAL N 2 - LAGUNA DE TESORERO,PALPALA,Jujuy,28/04/17,-24.10776000,-65.14469500,Completada,Internet Satelital + TV Digital Satelital + EduTac
380094211,380094211 - ESCUELA SECUNDARIA RURAL N 2 - LAGUNA DE TESORERO,DOCTOR MANUEL BELGRANO,Jujuy,28/04/17,-23.94798000,-65.29830400,Completada,Internet Satelital + TV Digital Satelital + EduTac
540147800,540147800 ESCUELA PROVINCIAL Nro.  891,MANUEL BELGRANO,Misiones,28/04/17,-25.62766800,-54.58351000,Completada,Internet Satelital + TV Digital Satelital + EduTac
860214603,860214603 AGRUPAMIENTO Nro. 86057 ESC Nro. 513,COPO,Santiago del Estero,03/05/17,-25.83161256,-63.79513141,Completada,Internet Satelital + TV Digital Satelital + EduTac
860214605,860214605 AGRUPAMIENTO Nro. 86057 ESC Nro. 807,COPO,Santiago del Estero,03/05/17,-26.25535000,-64.15934000,Completada,Internet Satelital + TV Digital Satelital + EduTac
180093100,180093100 ESCUELA Nro. 798 JERONIMO FRANCISCO REZZOAGLI - P. LIBRES,PASO DE LOS LIBRES,Corrientes,04/05/17,-29.87793400,-57.53291700,Completada,Internet Satelital + TV Digital Satelital + EduTac
860211202,860211202 AGRUPAMIENTO Nro. 86019 ESC Nro. 886,PELLEGRINI,Santiago del Estero,04/05/17,-26.07338000,-63.78619000,Completada,Internet Satelital + TV Digital Satelital + EduTac
860211203,860211203 AGRUPAMIENTO Nro. 86019 ESC Nro. 361,PELLEGRINI,Santiago del Estero,04/05/17,-26.24736052,-63.77519778,Completada,Internet Satelital + TV Digital Satelital + EduTac
860211204,860211204 AGRUPAMIENTO Nro. 86019 ESC Nro. 877,PELLEGRINI,Santiago del Estero,04/05/17,-27.87410100,-64.26007900,Completada,Internet Satelital + TV Digital Satelital + EduTac
860210507,860210507 AGRUPAMIENTO Nro. 86063 - ESC Nro. 376,ALBERDI,Santiago del Estero,05/05/17,-26.05197971,-63.66903877,Completada,Internet Satelital + TV Digital Satelital + EduTac
660009700,660009700 COLEGIO SECUNDARIO RURAL MEDIADO POR TIC NRO. 5214,MOLINOS,Salta,08/05/17,-25.95831268,-65.49675079,Completada,Internet Satelital + TV Digital Satelital + EduTac
220084601,220084601 E.E.P. Nro. 882 -JUANA AZURDUY-,GENERAL GUEMES,Chaco,10/05/17,-25.26458000,-62.31328000,Completada,Internet Satelital + TV Digital Satelital + EduTac
220031300,220031300 EEP Nro. 86,Almirante Brown,Chaco,10/05/17,-25.39814000,-62.28526000,Completada,Internet Satelital + TV Digital Satelital + EduTac
100080906,100080906-ESCUELA Nro.  359 DR. VICENTE LEONIDAS SAADI,ANCASTI,Catamarca,10/05/17,-29.03641000,-65.54360000,Completada,Internet Satelital + TV Digital Satelital + EduTac
100086601,100086601-ANEXO Nro. I - SECUNDARIA RURAL Nro. 4 - ESC. Nro.  402,BELEN,Catamarca,10/05/17,-28.91672600,-65.63203500,Completada,Internet Satelital + TV Digital Satelital + EduTac
220187900,220187900-E.E.P. Nro. 1050 -DON HECTOR EDUARDO MORENO-,ALMIRANTE BROWN,Chaco,10/05/17,-25.51499000,-63.02071000,Completada,Internet Satelital + TV Digital Satelital + EduTac
220084200,220084200-E.E.P. Nro. 209,ALMIRANTE BROWN,Chaco,10/05/17,-25.58335600,-63.02914800,Completada,Internet Satelital + TV Digital Satelital + EduTac
540134900,540134900 ESCUELA Nro. 856,GUARANI,Misiones,10/05/17,-27.18796667,-54.12002333,Completada,Internet Satelital + TV Digital Satelital + EduTac
580031500,580031500 ESCUELA PRIMARIA  90 RAÚL DÍAZ,ALUMINE,Neuquén,10/05/17,-38.85986667,-71.20186667,Completada,Internet Satelital + TV Digital Satelital + Edu
860210510,860210510 AGRUPAMIENTO Nro. 8663 - ESC Nro.  1147,COPO,Santiago del Estero,11/05/17,-26.05118333,-63.66825000,Completada,Internet Satelital + TV Digital Satelital + EduTac
460008800,460008800 ESC.Nro. 55 JOSE SANTIAGO PIOLI,CAPITAL,La Rioja,11/05/17,-29.20151800,-66.02042600,Completada,Internet Satelital + TV Digital Satelital + EduTac
180118700,180118700 ESCUELA Nro. 775 DR.RENE FAVALORO - SANTO TOME,SANTO TOME,Corrientes,12/05/17,-28.31584220,-56.52938440,Completada,Internet Satelital + TV Digital Satelital + EduTac
860146906,860146906 AGRUPAMIENTO 86031 ESC. Nro.  113,JIMENEZ,Santiago del Estero,12/05/17,-26.75470000,-64.42447000,Completada,Internet Satelital + TV Digital Satelital + EduTac
860210502,860210502 AGRUPAMIENTO Nro. 86063 - ESC Nro.  1177,COPO,Santiago del Estero,12/05/17,-26.10461667,-63.63966667,Completada,Internet Satelital + TV Digital Satelital + EduTac
660024600,660024600 ESC. PRIMARIA Nro.  4342,San Martín,Salta,12/05/17,-22.20101667,-63.06717778,Completada,Internet Satelital + TV Digital Satelital + EduTa
100013001,100013001 ESCUELA Nro.  114,SANTA MARIA,Catamarca,15/05/17,-26.69479000,-66.04272000,Completada,Internet Satelital + TV Digital Satelital + EduTac
"660047801,""660047801 AULA ANEXA """"MARIA DEL ROSARIO DE SAN NICOLAS"""""",RIVADAVIA,Salta,16/05/17,-24.13345000,-62.81093000,Completada,Internet Satelital + TV Digital Satelital + EduTac"
660053202,660053202 ESC. Nro.  350 - SAN JOSÉ DE CHASQUIVIL,RIVADAVIA,Salta,16/05/17,-23.81756100,-66.23448100,Completada,Internet Satelital + TV Digital Satelital + EduTa
660049400,660049400 CABILDO ABIERTO DEL 22 DE MAYO DE 181 EX Nro.  468,RIVADAVIA,Salta,17/05/17,-24.05585000,-63.24178333,Completada,Internet Satelital + TV Digital Satelital + EduTac
660073800,660073800 SAN PEDRO APOSTOL - EX Nro. 78,SANTA VICTORIA,Salta,17/05/17,-22.30340389,-64.98355327,Completada,Internet Satelital + TV Digital Satelital + EduTac
220111100,220111100-E.E.P. Nro. 604 -SANTIAGO AMBROSIO GOMEZ-,GENERAL GUEMES,Chaco,17/05/17,-25.78876900,-60.91652500,Completada,Internet Satelital + TV Digital Satelital + EduTac
660048900,660048900-MARTIN MIGUEL DE GUEMES EX Nro.  825,RIVADAVIA,Salta,17/05/17,-23.76752000,-63.07346000,Completada,Internet Satelital + TV Digital Satelital + EduTac
220020100,220020100 E.E.P. Nro.  903,GENERAL GUEMES,Chaco,18/05/17,-25.57850000,-60.52480000,Completada,Internet Satelital + TV Digital Satelital + EduTac
100080907,100080907-ESCUELA Nro.  20 JOSE M.FIGUEROA CACERES,ANCASTI,Catamarca,18/05/17,-28.78483700,-65.52137000,Completada,Internet Satelital + TV Digital Satelital + EduTac
380092502,380092502 - ESCUELA RURAL N 1 - NORMENTA,LEDESMA,Jujuy,19/05/17,-23.86202000,-65.09176000,Completada,Internet Satelital + TV Digital Satelital + EduTac
660048800,660048800 ESC. Nro.  219,RIVADAVIA,Salta,19/05/17,-24.02732000,-63.34879000,Completada,Internet Satelital + TV Digital Satelital + EduTac
220229500,220229500-INSTITUTO DE EDUCACION SUPERIOR - CHARADAI,ALMIRANTE BROWN,Chaco,19/05/17,-27.65590000,-59.85990000,Completada,Internet Satelital + TV Digital Satelital + EduTac
860030300,860030300 ESCUELA Nro. 668,MORENO,Santiago del Estero,22/05/17,-27.01147000,-62.02211000,Completada,Internet Satelital + TV Digital Satelital + EduTac
860208900,860208900 AGRUPAMIENTO Nro. 86077  SEDE ESC Nro. 937,ALBERDI,Santiago del Estero,22/05/17,-27.08177000,-63.16199000,Completada,Internet Satelital + TV Digital Satelital + EduTac
660155300,660155300 ESCUELA Nro.  477 - MISIÓN LA LOMA,GENERAL JOSE DE SAN MARTIN,Salta,23/05/17,-24.78293230,-65.41215520,Completada,Internet Satelital + TV Digital Satelital + EduTa
380092509,380092509 - ESCUELA RURAL N 1 - VALLE COLORADO,VALLE GRANDE,Jujuy,24/05/17,-23.41350000,-64.93297000,Completada,Internet Satelital + TV Digital Satelital + EduTac
380092510,380092510 - ESCUELA RURAL N 1 - PAMPICHUELA,VALLE GRANDE,Jujuy,24/05/17,-23.55432000,-65.00833000,Completada,Internet Satelital + TV Digital Satelital + EduTac
220099201,220099201-E.E.S. Nro. 30 - ETANISLAO S. ZEBALLOS (CEP Nro. 30),ALMIRANTE BROWN,Chaco,24/05/17,-27.52183700,-60.39127400,Completada,Internet Satelital + TV Digital Satelital + EduTac
900028300,900028300-ESC. Nro. 318 - MARCOS SASTRE,Juan B ALBERDI,Tucumán,24/05/17,-27.27780000,-65.14170000,Completada,Internet Satelital + TV Digital Satelital + EduTa
900064300,900064300-ESC. Nro.  310,BURRUYACU,Tucumán,29/05/17,-26.23173500,-65.28098300,Completada,Internet Satelital + TV Digital Satelital + EduTa
100081703,100081703 ESCUELA Nro. 423 FUNDACION WOLF,BELEN,Catamarca,30/05/17,-26.69464231,-66.04295969,Completada,Internet Satelital + TV Digital Satelital + EduTac
220051500,220051500-E.E.P. Nro. 925 -VICENTE NAVARRETE-,Tapenaga,Chaco,30/05/17,-24.65562000,-62.03420000,Completada,Internet Satelital + TV Digital Satelital + EduTac
220051300,220051300-E.E.P. Nro. 780 -PADRE SEVERIANO AYASTUY ERRASTI-,GENERAL GUEMES,Chaco,31/05/17,-24.56214000,-62.23939000,Completada,Internet Satelital + TV Digital Satelital + EduTac
900023300,900023300-ESC. CORONEL MARIANO SALAS,BURRUCAYU,Tucumán,31/05/17,-26.48814300,-64.73747800,Completada,Internet Satelital + TV Digital Satelital + EduTa
900193612,900193612-ESC. SECUNDARIA GOBERNADOR GARMENDIA C.E.B.A.. Nro.  1-22,CAPITAL,Tucumán,31/05/17,-26.45558900,-64.70966300,Completada,Internet Satelital + TV Digital Satelital + EduTa
180092100,180092100 ESCUELA Nro. 329 - MERCEDES,MERCEDES,Corrientes,01/06/17,-29.79061800,-58.08868250,Completada,Internet Satelital + TV Digital Satelital + EduTac
220105700,220105700 E.E.P. Nro.  956,GENERAL GUEMES,Chaco,01/06/17,-24.65521900,-62.42654200,Completada,Internet Satelital + TV Digital Satelital + EduTac
860083601,860083601-ANEXO ESCUELA Nro.  417 CABO MARIO RAMÓN LUNA,FIGUEROA,Santiago del Estero,01/06/17,-27.24623000,-63.48676000,Completada,Internet Satelital + TV Digital Satelital + EduTa
220142100,220142100-E.E.P. Nro.  890,ALMIRANTE BROWN,Chaco,01/06/17,-25.00537000,-62.42615000,Completada,Internet Satelital + TV Digital Satelital + EduTac
220031500,220031500 E.E.P. Nro.  816,ALMIRANTE BROWN,Chaco,02/06/17,-25.17425000,-62.60588900,Completada,Internet Satelital + TV Digital Satelital + EduTac
860208906,860208906 AGRUPAMIENTO Nro. 86077 - ESC Nro.  180,MORENO,Santiago del Estero,06/06/17,-26.19140787,-64.21555990,Completada,Internet Satelital + TV Digital Satelital + EduTac
660088100,660088100-ESCUELA Nro.  4117 EX Nro. 197,GENERAL JOSE DE SAN MARTIN,Salta,06/06/17,-24.02685041,-63.08287533,Completada,Internet Satelital + TV Digital Satelital + EduTac
180118600,180118600 ESCUELA Nro. 596 MARCOS GALARZA - SANTO TOME,SANTO TOME,Corrientes,07/06/17,-28.10106090,-56.67255320,Completada,Internet Satelital + TV Digital Satelital + EduTac
540185700,540185700 ESCUELA Nro. 938,San Pedro,Misiones,07/06/17,-27.26500000,-55.49194444,Completada,Internet Satelital + TV Digital Satelital + EduTac
660109000,660109000 ESCUELA Nro.  424 EX Nro.  371,GENERAL JOSE DE SAN MARTIN,Salta,07/06/17,-22.64741543,-65.17048472,Completada,Internet Satelital + TV Digital Satelital + EduTac
660093800,660093800 ESCUELA Nro.  4299 EX  Nro.  466,RIVADAVIA,Salta,07/06/17,-24.19409660,-63.23135694,Completada,Internet Satelital + TV Digital Satelital + EduTac
660083200,660083200-CIUDAD DE SALTA EX Nro. 872,ANTA,Salta,07/06/17,-24.24068333,-63.39296667,Completada,Internet Satelital + TV Digital Satelital + EduTac
660093400,660093400 NUESTRA SEÑORA DEL VALLE EX  Nro.  871,RIVADAVIA,Salta,08/06/17,-24.39660365,-62.36164351,Completada,Internet Satelital + TV Digital Satelital + EduTa
660108900,660108900 ESCUELA Nro.  4163 EX Nro.  258,GENERAL JOSE DE SAN MARTIN,Salta,08/06/17,-22.71880000,-63.12635000,Completada,Internet Satelital + TV Digital Satelital + EduTac
900032000,900032000-ESC Nro.  157 - MAESTRO RURAL,LEALES,Tucumán,08/06/17,-27.28055300,-65.02779400,Completada,Internet Satelital + TV Digital Satelital + EduTa
660068300,660068300 ARIEL PETROCELLI EX Nro. 339,RIVADAVIA,Salta,09/06/17,-24.04713740,-62.67859547,Completada,Internet Satelital + TV Digital Satelital + EduTac
660048300,660048300 ESCUELA Nro.  4471 EX Nro.  675,RIVADAVIA,Salta,09/06/17,-24.13040261,-62.69897384,Completada,Internet Satelital + TV Digital Satelital + EduTac
860071800,860071800 ESCUELA Nro.  337 ESCUELA INFANTIL,JIMENEZ,Santiago del Estero,12/06/17,-26.84070100,-64.29763700,Completada,Internet Satelital + TV Digital Satelital + EduTac
220102701,220102701 E.E.P. Nro.   24-IRENE NIELLA DE GORDIOLA,TAPENAGA,Chaco,13/06/17,-27.65466000,-59.86189000,Completada,Internet Satelital + TV Digital Satelital + EduTac
220025000,220025000 EEP Nro. 924,General Guemes,Chaco,13/06/17,-24.87720600,-61.51412500,Completada,Internet Satelital + TV Digital Satelital + EduTac
220058300,220058300 EEP Nro. 557,General Guemes,Chaco,13/06/17,-24.77099000,-61.82243000,Completada,Internet Satelital + TV Digital Satelital + EduTac
220025300,220025300 EEP Nro. 798,General Guemes,Chaco,14/06/17,-25.07643000,-61.25174000,Completada,Internet Satelital + TV Digital Satelital + EduTac
220021600,220021600 EEP Nro. 977,General Guemes,Chaco,14/06/17,-25.17015000,-61.35257000,Completada,Internet Satelital + TV Digital Satelital + EduTac
220102900,220102900 ESCUELA Nro.  4163 EX Nro.  258,SAN LORENZO,Chaco,14/06/17,-27.54320000,-59.95612000,Completada,Internet Satelital + TV Digital Satelital + EduTac
220019600,220019600 ESCUELA Nro.  4585 EX Nro.  814,TAPENAGA,Chaco,14/06/17,-27.87259800,-59.93794900,Completada,Internet Satelital + TV Digital Satelital + EduTac
220121900,220121900 ESCUELA Nro. 4238 EL TOTORAL EX Nro.  369,General Guemes,Chaco,14/06/17,-25.73877200,-60.16745000,Completada,Internet Satelital + TV Digital Satelital + EduTac
900050000,900050000-ESC. Nro.  61 - DOLORES DEL CARMEN BRITO,BURRUCAYU,Tucumán,14/06/17,-26.24990400,-64.61680600,Completada,Internet Satelital + TV Digital Satelital + EduTa
220052401,220052401 E.E.P. Nro. 877 GRAL. AGUSTIN PINEDO,12 DE OCTUBRE,Chaco,15/06/17,-27.03911000,-61.71184000,Completada,Internet Satelital + TV Digital Satelital + EduTac
220010501,220010501 EEP Nro. 22,San Fernando,Chaco,16/06/17,-26.14143000,-61.00378000,Completada,Internet Satelital + TV Digital Satelital + EduTac
220011100,220011100 EEP Nro. 797,ALMIRANTE BROWN,Chaco,16/06/17,-26.66016900,-61.29724500,Completada,Internet Satelital + TV Digital Satelital + EduTac
220019301,220019301 E.E.P. Nº 382,TAPENAGA,Chaco,16/06/17,-27.33097000,-60.21340000,Completada,Internet Satelital + TV Digital Satelital + EduTa
900026200,900026200-ESC. Nro.  131,SIMOCA,Tucumán,16/06/17,-26.68952000,-65.60675200,Completada,Internet Satelital + TV Digital Satelital + EduTa
220061700,220061700 E.E.P. Nro. 593 DON LETICIO VILLALBA,ALMIRANTE BROWN,Chaco,22/06/17,-25.43277000,-62.35148400,Completada,Internet Satelital + TV Digital Satelital + EduTac
220051400,220051400 EEP Nro. 773,General Guemes,Chaco,22/06/17,-24.73144700,-61.93599200,Completada,Internet Satelital + TV Digital Satelital + EduTac
220019300,220019300 ESCUELA Nro. 4677 JESUS MISERICORDIOSO EX Nro.  940,ALMIRANTE BROWN,Chaco,22/06/17,-27.33096000,-60.21358000,Completada,Internet Satelital + TV Digital Satelital + EduTac
220084600,220084600 EEP N° 882,ALMIRANTE BROWN,Chaco,22/06/17,-25.23100600,-62.35378400,Completada,Internet Satelital + TV Digital Satelital + EduTa
860210504,860210504 AGRUPAMIENTO Nro. 86063 - ESC Nro.  353,COPO,Santiago del Estero,23/06/17,-26.08105213,-63.62298507,Completada,Internet Satelital + TV Digital Satelital + EduTac
220051503,220051503 E.E.P. Nro. 925 -VICENTE NAVARRETE-,GENERAL GUEMES,Chaco,23/06/17,-24.60863200,-62.13806200,Completada,Internet Satelital + TV Digital Satelital + EduTac
220015403,220015403-INSTITUTO DE EDUCACION SUPERIOR - DR.RENE G.FAVALORO,GENERAL GUEMES,Chaco,23/06/17,-25.63880000,-60.26400000,Completada,Internet Satelital + TV Digital Satelital + EduTac
220129900,220129900-E.E.P. Nro.  938,ALMIRANTE BROWN,Chaco,23/06/17,-24.89814343,-62.49723379,Completada,Internet Satelital + TV Digital Satelital + EduTac
900003300,900003300-ESC. Nro.  336,TAFI DEL VALLE,Tucumán,23/06/17,-26.85905200,-65.69652100,Completada,Internet Satelital + TV Digital Satelital + EduTa
220024500,220024500 EEP Nro. 853,General Guemes,Chaco,27/06/17,-24.22054000,-62.14874000,Completada,Internet Satelital + TV Digital Satelital + EduTac
220203900,220203900 EEP Nro. 165,General Guemes,Chaco,27/06/17,-24.34548000,-62.26395000,Completada,Internet Satelital + TV Digital Satelital + EduTac
220216300,220216300 EEP Nro. 172,General Guemes,Chaco,28/06/17,-24.12243000,-62.33965000,Completada,Internet Satelital + TV Digital Satelital + EduTac
860169100,860169100 ESCUELA Nro. 652,PELLEGRINI,Santiago del Estero,29/06/17,-26.32236667,-63.75631667,Completada,Internet Satelital + TV Digital Satelital + EduTac
460028600,460028600 ESC.Nro. 348,CHAMICAL,La Rioja,29/06/17,-30.14114800,-65.57902700,Completada,Internet Satelital + TV Digital Satelital + EduTac
220106200,220106200 EEP N° 826 Paraje el Vizcacheral,General Güemes,Chaco,29/06/17,-24.39073000,-61.71542000,Completada,Internet Satelital + TV Digital Satelital + EduT
660084300,660084300 LA ARGENTINA EX Nro. 473,ANTA,Salta,30/06/17,-24.50950000,-63.02616667,Completada,Internet Satelital + TV Digital Satelital + EduTac
460003800,460003800 ESC.Nro. 35 La Antigua (Dr.P. M. Araoz),CAPITAL,La Rioja,30/06/17,-29.80642200,-66.09711300,Completada,Internet Satelital + TV Digital Satelital + EduTac
900014700,900014700-TENIENTE ABANDERADO MANUEL DOMINGO BASAIL,CHICLIGASTA,Tucumán,30/06/17,-27.30689600,-65.57388200,Completada,Internet Satelital + TV Digital Satelital + EduTa
860064800,860064800 ESCUELA Nro.  324 SANTIAGO DEL ESTERO,JIMENEZ,Santiago del Estero,03/07/17,-27.14078333,-64.37306667,Completada,Internet Satelital + TV Digital Satelital + EduTac
460037301,460037301 J.I.N. Nro. 3 EXTENSION 1,GENERAL SAN MARTIN,La Rioja,03/07/17,-31.69222600,-65.88603900,Completada,Internet Satelital + TV Digital Satelital + EduTac
460037303,460037303 J.I.N. Nro. 3 EXTENSION 3,GENERAL SAN MARTIN,La Rioja,03/07/17,-31.48129600,-65.92087000,Completada,Internet Satelital + TV Digital Satelital + EduTac
460037304,460037304 J.I.N. Nro. 3 EXTENSION 4,GENERAL SAN MARTIN,La Rioja,04/07/17,-31.92125900,-66.53814900,Completada,Internet Satelital + TV Digital Satelital + EduTac
380094207,380094207 - ESCUELA SECUNDARIA RURAL N 2,COCTACA,Jujuy,05/07/17,-23.15334000,-65.54858000,Completada,Internet Satelital + TV Digital Satelital + EduTac
460037302,460037302 J.I.N. N°3 EXTENSION 2,GENERAL SAN MARTIN,La Rioja,05/07/17,-31.82582700,-66.37667000,Completada,Internet Satelital + TV Digital Satelital + EduTa
380030900,380030900 ESCUELA N 177,COCHINOCA,Jujuy,06/07/17,-22.52911000,-65.52235200,Completada,Internet Satelital + TV Digital Satelital + EduTac
380031000,380031000 ESCUELA N 315,COCHINOCA,Jujuy,06/07/17,-22.66041000,-65.54275200,Completada,Internet Satelital + TV Digital Satelital + EduTac
220011200,220011200 E.E.P. Nº 234 -DANTE TESTI-,GENERAL BELGRANO,Chaco,06/07/17,-26.74113792,-61.24542724,Completada,Internet Satelital + TV Digital Satelital + EduTa
900002100,900002100-ESC. Nro.  214 RAMON JULIAN VALVERDI,Orán,Tucumán,07/07/17,-23.51983333,-63.54266667,Completada,Internet Satelital + TV Digital Satelital + EduT
900002400,900002400-ESC. Nro.  385,TRANCAS,Tucumán,10/07/17,-26.13630600,-65.50107700,Completada,Internet Satelital + TV Digital Satelital + EduTa
100078907,100078907 ESCUELA Nro. 412,BELEN,Catamarca,13/07/17,-27.16459000,-66.83510000,Completada,Internet Satelital + TV Digital Satelital + EduTac
660114200,660114200-ESCUELA Nro.  4559 EX Nro.  779,SANTA VICTORIA,Salta,18/07/17,-22.18806667,-64.67360000,Completada,Internet Satelital + TV Digital Satelital + EduTac
660074100,660074100-GENDARMERIA NACIONAL  CENTINELA DE LA PATRIA  EX Nro. 392,SANTA VICTORIA,Salta,18/07/17,-23.52220500,-63.54895600,Completada,Internet Satelital + TV Digital Satelital + EduTac
660074200,660074200-DE LA PATRIA EX Nro. 375,SANTA VICTORIA,Salta,19/07/17,-22.30463468,-64.71502409,Completada,Internet Satelital + TV Digital Satelital + EduTac
660107200,660107200 PATRICIAS ARGENTINAS EX Nro.  251,SANTA VICTORIA,Salta,20/07/17,-24.61740000,-64.13200000,Completada,Internet Satelital + TV Digital Satelital + EduTac
380092900,380092900 - COLEGIO SUNDARIO N 55,SANTA CATALINA,Jujuy,26/07/17,-22.09937000,-66.13281600,Completada,Internet Satelital + TV Digital Satelital + EduTac
660093200,660093200-PUERTO ARGENTINO EX Nro.  319,RIVADAVIA,Salta,26/07/17,-24.39650000,-62.36179000,Completada,Internet Satelital + TV Digital Satelital + EduTac
380051200,380051200 ESCUELA N 56 NUESTRO SEÑOR DEL MILAGRO,COCHINOCA,Jujuy,27/07/17,-23.19011000,-65.98895000,Completada,Internet Satelital + TV Digital Satelital + EduTa
660049200,660049200 FORTIN ARGENTINO EX Nro.  36,RIVADAVIA,Salta,27/07/17,-24.17319417,-62.94271231,Completada,Internet Satelital + TV Digital Satelital + EduTac
380052800,380052800 ESCUELA N 67,COCHINOCA,Jujuy,27/07/17,-23.12490000,-66.05395000,Completada,Internet Satelital + TV Digital Satelital + EduTac
660049100,660049100-TTE.JOSE LUIS BROWN EX Nro.  322,RIVADAVIA,Salta,27/07/17,-24.05990000,-63.24741000,Completada,Internet Satelital + TV Digital Satelital + EduTac
660074700,660074700 Escuela DAVID BLANCO EX Nro.  788,ORAN,Salta,28/07/17,-23.13459300,-64.31213100,Completada,Internet Satelital + TV Digital Satelital + EduTac
380075400,380075400 - COLEGIO DE NIVEL SECUNDARIO N 10,YAVI,Jujuy,02/08/17,-22.38606000,-65.33942000,Completada,Internet Satelital + TV Digital Satelital + EduTac
380094203,380094203 - ESCUELA SECUNDARIA RURAL N 2,HUMAHUACA,Jujuy,03/08/17,-23.12272000,-65.13484000,Completada,Internet Satelital + TV Digital Satelital + EduTac
860210508,860210508 AGRUPAMIENTO Nro. 86063 - ESC Nro. 357,COPO,Santiago del Estero,03/08/17,-29.17751080,-63.94204845,Completada,Internet Satelital + TV Digital Satelital + EduTac
380056000,380056000 ESCUELA N 439,COCHINOCA,Jujuy,08/08/17,-23.28690000,-65.96760000,Completada,Internet Satelital + TV Digital Satelital + EduTac
860210503,860210503 AGRUPAMIENTO Nro. 86063 - ESC Nro.  380,COPO,Santiago del Estero,09/08/17,-26.21733700,-63.61394086,Completada,Internet Satelital + TV Digital Satelital + EduTac
660157500,660157500 COLEGIO SECUNDARIO RURAL MEDIADO POR TIC NRO. 5216,RIVADAVIA,Salta,09/08/17,-22.33805000,-65.16933333,Completada,Internet Satelital + TV Digital Satelital + EduTac
660157200,660157200 COLEGIO SECUNDARIO RURAL MEDIADO POR TIC NRO. 5213,RIVADAVIA,Salta,10/08/17,-25.24617000,-66.43676000,Completada,Internet Satelital + TV Digital Satelital + EduTac
460038500,460038500 ESCUELA DEL DIVISADERO (NRO. 213),ROSARIO VERA PEÑALOZA,La Rioja,11/08/17,-31.72655000,-66.75760000,Completada,Internet Satelital + TV Digital Satelital + EduTa
860069700,860069700 ESCUELA Nro.  94,JIMENEZ,Santiago del Estero,14/08/17,-27.11236334,-64.37316003,Completada,Internet Satelital + TV Digital Satelital + EduTac
460027000,460027000 ESC.Nro. 312 DR.JOSE E.COLOMBRES,CHAMICAL,La Rioja,14/08/17,-30.22916800,-65.60640700,Completada,Internet Satelital + TV Digital Satelital + EduTac
220062700,220062700 E.E.P. Nro. 614 SAN FRANCISCO DE ASIS,ALMIRANTE BROWN,Chaco,15/08/17,-25.13827000,-62.93567000,Completada,Internet Satelital + TV Digital Satelital + EduTac
100028600,100028600 ESCUELA SECUNDARIA Nro. 66,TINOGASTA,Catamarca,16/08/17,-27.33534000,-67.75465000,Completada,Internet Satelital + TV Digital Satelital + EduTac
100082106,100082106-ESCUELA Nro. 476,TINOGASTA,Catamarca,16/08/17,-27.21413000,-67.60613600,Completada,Internet Satelital + TV Digital Satelital + EduTac
100082103,100082103-ESCUELA Nro. 306,TINOGASTA,Catamarca,16/08/17,-27.11358000,-67.68034000,Completada,Internet Satelital + TV Digital Satelital + EduTac
100027000,100027000 ESCUELA Nro.  406 MUNICIPALIDAD DE LA CIUDAD DE BUENOS AIRES,TINOGASTA,Catamarca,16/08/17,-27.33591000,-67.75490000,Completada,Internet Satelital + TV Digital Satelital + EduTac
100078802,100078802 ESCUELA Nro.  104,TINOGASTA,Catamarca,17/08/17,-27.11297035,-67.67951488,Completada,Internet Satelital + TV Digital Satelital + EduTac
100078806,100078806 ESCUELA Nro. 93 DR.RICARDO BALBIN,TINOGASTA,Catamarca,17/08/17,-27.52171000,-67.58179000,Completada,Internet Satelital + TV Digital Satelital + EduTac
100078903,100078903 ESCUELA Nro. 68 JOSE OLMOS DE AGUILERA,BELEN,Catamarca,17/08/17,-27.25107000,-67.03520000,Completada,Internet Satelital + TV Digital Satelital + EduTac
460054000,460054000 ESCUELA SECUNDARIA DE PAGANCILLO,CORONEL FELIPE VARELA,La Rioja,17/08/17,-29.54172900,-68.09983200,Completada,Internet Satelital + TV Digital Satelital + EduTac
100078901,100078901-ESCUELA Nro. 350,BELEN,Catamarca,18/08/17,-27.22846000,-66.93585000,Completada,Internet Satelital + TV Digital Satelital + EduTac
860055500,860055500 ESCUELA Nro.382 SANTA ROSA DE LIMA,COPO,Santiago del Estero,23/08/17,-25.97600000,-63.61629000,Completada,Internet Satelital + TV Digital Satelital + EduTac
860211201,860211201 AGRUPAMIENTO Nro. 86019 ESC Nro. 805,PELLEGRINI,Santiago del Estero,23/08/17,-26.21053333,-63.77461667,Completada,Internet Satelital + TV Digital Satelital + EduTac
100081704,100081704 ESCUELA Nro. 454,BELEN,Catamarca,24/08/17,-27.01830000,-66.67805000,Completada,Internet Satelital + TV Digital Satelital + EduTac
660157400,660157400 COLEGIO SECUNDARIO RURAL MEDIADO POR TIC NRO. 5215,Rivadavia,Salta,24/08/17,-23.10700000,-64.75850000,Completada,Internet Satelital + TV Digital Satelital + EduTac
860210505,860210505 AGRUPAMIENTO Nro. 86063 - ESC Nro. 344,COPO,Santiago del Estero,25/08/17,-26.27450174,-63.73851163,Completada,Internet Satelital + TV Digital Satelital + EduTac
100081707,100081707-ESCUELA Nro. 425,BELEN,Catamarca,29/08/17,-27.01978041,-66.91107346,Completada,Internet Satelital + TV Digital Satelital + EduTac
100081708,100081708-ESCUELA Nro.  116 NICOLAS RAMOS,BELEN,Catamarca,29/08/17,-25.51691000,-67.61833000,Completada,Internet Satelital + TV Digital Satelital + EduTac
100081701,100081701 ESCUELA Nro. 142 POLICIA FEDERAL ARGENTINA,ANTOFAGASTA DE LA SIERRA,Catamarca,30/08/17,-26.47837300,-67.26640300,Completada,Internet Satelital + TV Digital Satelital + EduTac
100069109,100069109 ESCUELA Nro.  442,SANTA MARIA,Catamarca,30/08/17,-27.00978041,-66.90107346,Completada,Internet Satelital + TV Digital Satelital + EduTac
100081706,100081706-ESCUELA Nro. 494 CAMARA DE DIPUTADOS,ANTOFAGASTA DE LA SIERRA,Catamarca,30/08/17,-26.05786000,-67.40605000,Completada,Internet Satelital + TV Digital Satelital + EduTac
380090300,380090300 - COLEGIO SECUNDARIO N 51,TUMBAYA,Jujuy,06/09/17,-23.56608000,-65.69733000,Completada,Internet Satelital + TV Digital Satelital + EduTac
860214604,860214604 AGRUPAMIENTO Nro. 86057 ESC Nro. 710,COPO,Santiago del Estero,06/09/17,-25.81097354,-63.63508350,Completada,Internet Satelital + TV Digital Satelital + EduTac
860214601,860214601 AGRUPAMIENTO Nro. 86057 ESC Nro. 1174,COPO,Santiago del Estero,06/09/17,-25.90341667,-63.70500000,Completada,Internet Satelital + TV Digital Satelital + EduTac
900010600,900010600-ESC. Nro.  222,LULES,Tucumán,12/09/17,-26.79400400,-65.46850300,Completada,Internet Satelital + TV Digital Satelital + EduTa
900066300,900066300-ESC. Nro.  216,TRANCAS,Tucumán,13/09/17,-26.23727600,-65.28484800,Completada,Internet Satelital + TV Digital Satelital + EduTa
100089401,100089401 ESCUELA Nro.  89,BELEN,Catamarca,19/09/17,-26.49624400,-66.91954000,Completada,Internet Satelital + TV Digital Satelital + EduTac
100081705,100081705-ESCUELA Nro. 450 MAESTRO SCIDA,BELEN,Catamarca,20/09/17,-26.59071000,-66.93053000,Completada,Internet Satelital + TV Digital Satelital + EduTac
100089100,100089100 ESCUELA SECUNDARIA RURAL Nro. 27,ANTOFAGASTA DE LA SIERRA,Catamarca,21/09/17,-26.47742700,-67.26464800,Completada,Internet Satelital + TV Digital Satelital + EduTac
100026100,100026100-ESCUELA SECUNDARIA Nro. 39,ANTOFAGASTA DE LA SIERRA,Catamarca,21/09/17,-26.06140400,-67.40704200,Completada,Internet Satelital + TV Digital Satelital + EduTac
100018500,100018500 ESCUELA Nro.  163,BELEN,Catamarca,27/09/17,-26.35763900,-66.64338900,Completada,Internet Satelital + TV Digital Satelital + EduTac
380028200,380028200 ESCUELA N 183 JOSE HERNANDEZ,YAVI,Jujuy,27/09/17,-22.12232000,-65.56796000,Completada,Internet Satelital + TV Digital Satelital + EduTac
100086100,100086100 ESCUELA Nro.  194,BELEN,Catamarca,28/09/17,-26.52735000,-66.69982000,Completada,Internet Satelital + TV Digital Satelital + EduTac
100081702,100081702 ESCUELA Nro. 420 AUTOMOVIL CLUB ARGENTINO,BELEN,Catamarca,28/09/17,-26.98182600,-66.73313800,Completada,Internet Satelital + TV Digital Satelital + EduTac
100078906,100078906 ESCUELA Nro. 288 JUAN DOMINGO PERON,BELEN,Catamarca,29/09/17,-27.22550000,-66.83250000,Completada,Internet Satelital + TV Digital Satelital + EduTac
860056700,860056700 ESCUELA Nro.353,COPO,Santiago del Estero,03/10/17,-25.91323000,-63.32574000,Completada,Internet Satelital + TV Digital Satelital + EduTac
220013400,220013400 ESCUELA Nro.  4248 EX Nro.  382,ALMIRANTE BROWN,Chaco,03/10/17,-26.29310000,-60.96315000,Completada,Internet Satelital + TV Digital Satelital + EduTac
220116100,220116100 EEP NRO  724 PRINCIPAL,ALMIRANTE BROWN,Chaco,04/10/17,-26.16648236,-61.14794300,Completada,Internet Satelital + TV Digital Satelital + EduTac
140208300,140208300 Mariano Moreno,RIO SECO,Córdoba,09/10/17,-29.95477877,-63.33326979,Completada,Internet Satelital + TV Digital Satelital + EduTa
140207600,140207600 Paula Albarracin,RIO SECO,Córdoba,09/10/17,-30.01728917,-63.05307312,Completada,Internet Satelital + TV Digital Satelital + EduTa
140327700,140327700 Granadero Marquez,RIO SECO,Córdoba,10/10/17,-30.11479798,-62.93162847,Completada,Internet Satelital + TV Digital Satelital + EduTa
100018800,100018800 ESCUELA Nro.  423 FUNDACION WOLF,BELEN,Catamarca,11/10/17,-27.09266700,-66.82333300,Completada,Internet Satelital + TV Digital Satelital + EduTac
100019201,100019201 ANEXO LA CIENAGA REDONDA,ANTOFAGASTA DE LA SIERRA,Catamarca,11/10/17,-25.33155000,-66.83889000,Completada,Internet Satelital + TV Digital Satelital + EduTac
140431801,140431801 Almirante Guillermo Brown,RIO SECO,Córdoba,19/10/17,-30.18320200,-62.94410430,Completada,Internet Satelital + TV Digital Satelital + EduTa
140118400,140118400 Escuela María Eva Barizone,RIO SECO,Córdoba,19/10/17,-30.18325000,-62.94422200,Completada,Internet Satelital + TV Digital Satelital + EduT
140207400,140207400 Provincia de Sta. Cruz,RIO SECO,Córdoba,20/10/17,-29.85239557,-63.08607812,Completada,Internet Satelital + TV Digital Satelital + EduTa
220024000,220024000 E.E.P. Nro. 554 ANDRES AVELINO QUIROGA,GENERAL GUEMES,Chaco,24/10/17,-25.21325400,-60.64145000,Completada,Internet Satelital + TV Digital Satelital + EduTac
140434100,140434100 Alfonsina Storni,SOBREMONTE,Córdoba,24/10/17,-31.50831100,-64.52887600,Completada,Internet Satelital + TV Digital Satelital + EduTa
140369900,140369900 Martin Miguel de Guemes,TULUMBA,Córdoba,24/10/17,-29.76391758,-64.52671793,Completada,Internet Satelital + TV Digital Satelital + EduTa
140216100,140216100 French y Beruti,SOBREMONTE,Córdoba,25/10/17,-29.61636111,-64.06244444,Completada,Internet Satelital + TV Digital Satelital + EduTa
220007600,220007600 Escuela N° 797 isla Soto Chaco,SAN FERNANDO - RESISTENCIA,Chaco,26/10/17,-27.83551000,-58.83552000,Completada,Internet Satelital + TV Digital Satelital + EduTa
860205200,860205200 ESCUELA DE EDUCACION ESPECIAL POZO HONDO,JIMENEZ,Santiago del Estero,31/10/17,-27.16554060,-64.49644390,Completada,Internet Satelital + TV Digital Satelital + EduTac
660147400,660147400 ESCUELA Nº 4815 (MISION WICHI LEWETES),RIVADAVIA,Salta,01/11/17,-23.60925193,-62.59567607,Completada,Internet Satelital + TV Digital Satelital + EduTa
660131900,660131900 17 de Junio Nº 4759 - PARAJE LA VALLE,RIVADAVIA,Salta,01/11/17,-24.72257171,-66.20134680,Completada,Internet Satelital + TV Digital Satelital + EduTa
860214600,860214600 AGRUPAMIENTO Nro. 86057 CON SEDE ESC Nro. 602,COPO,Santiago del Estero,02/11/17,-25.88743109,-63.78066961,Completada,Internet Satelital + TV Digital Satelital + EduTac
100081700,100081700-ESCUELA SEDE Nro. 89,ANCASTI,Catamarca,02/11/17,-26.49594000,-66.91999000,Completada,Internet Satelital + TV Digital Satelital + EduTac
660099200,660099200 URBANA PEREYRA EX N° 356,RIVADAVIA,Salta,02/11/17,-22.10361871,-65.02203878,Completada,Internet Satelital + TV Digital Satelital + EduTa
660086100,660086100 Escuela Nº 4323 POZO EL SAUCE EX N°511,RIVADAVIA,Salta,02/11/17,-23.66172727,-63.06120535,Completada,Internet Satelital + TV Digital Satelital + EduT
660020200,660020200 EJERCITO DE LOS ANDES EX N° 39,RIVADAVIA,Salta,02/11/17,-23.55878333,-63.08656667,Completada,Internet Satelital + TV Digital Satelital + EduTa
140083000,140083000 Esccuela José MaríaPaz,COLÓN,Córdoba,03/11/17,-31.13583300,-64.14055600,Completada,Internet Satelital + TV Digital Satelital + Ed
860138300,860138300 ESCUELA Nº 419,SILIPICA,Santiago del Estero,03/11/17,-28.29672730,-64.18350080,Completada,Internet Satelital + TV Digital Satelital + EduTa
860213704,860213704 AGRUPAMIENTO Nº 86127 ESC Nº 419,SILIPICA,Santiago del Estero,03/11/17,-28.22087997,-64.11630463,Completada,Internet Satelital + TV Digital Satelital + EduT
660068100,660068100 SAN CAYETANO EX N°349,RIVADAVIA,Salta,03/11/17,-23.11531900,-62.78463600,Completada,Internet Satelital + TV Digital Satelital + EduTa
860068600,860068600 ESCUELA N° 115 ESCUELA INFANTIL AMERICA,SAN MARTIN,Santiago del Estero,06/11/17,-28.22674260,-63.96009190,Completada,Internet Satelital + TV Digital Satelital + EduTa
860067700,860067700 ESCUELA N° 119 SAN LUIS GONZAGA,SAN MARTIN,Santiago del Estero,07/11/17,-28.22673090,-63.96009090,Completada,Internet Satelital + TV Digital Satelital + EduTa
660020400,660020400 ESCUELA Nª4649 EL ESPINILLO EX N° 894,RIVADAVIA,Salta,08/11/17,-23.90129876,-62.61505782,Completada,Internet Satelital + TV Digital Satelital + EduT
660112700,660112700 ESCUELA Nº 4648 Presidente Nestor Carlos Kirchner,RIVADAVIA,Salta,08/11/17,-22.85394000,-62.62769000,Completada,Internet Satelital + TV Digital Satelital + EduTa
860189300,860189300 JARDIN DE INFANTES N° 141 ABROJITOS,JIMENEZ,Santiago del Estero,08/11/17,-27.16816920,-64.49159150,Completada,Internet Satelital + TV Digital Satelital + EduTa
860145900,860145900 ESCUELA Nº873,SAN MARTIN,Santiago del Estero,09/11/17,-28.33771090,-64.02197460,Completada,Internet Satelital + TV Digital Satelital + EduTa
660113100,660113100 ESCUELA Nº 4674 EX N° 936,RIVADAVIA,Salta,09/11/17,-22.36944976,-65.14637476,Completada,Internet Satelital + TV Digital Satelital + EduT
860068900,860068900 ESCUELA Nº 1077,SAN MARTIN,Santiago del Estero,09/11/17,-28.24391380,-63.94987480,Completada,Internet Satelital + TV Digital Satelital + EduTa
860213300,860213300 JARDIN DE INFANTES Nº 131,SAN MARTIN,Santiago del Estero,09/11/17,-28.51684730,-63.77605786,Completada,Internet Satelital + TV Digital Satelital + EduTa
860207000,860207000 JARDIN DE INFANTES Nº 42 LUNA DE PAPEL,SAN MARTIN,Santiago del Estero,10/11/17,-28.00611190,-63.74166960,Completada,Internet Satelital + TV Digital Satelital + EduTa
860061400,860061400 ESCUELA Nº 851 GAUCHO GUEMES / JI 844,QUEBRACHOS,Santiago del Estero,11/11/17,-29.22818592,-63.40086509,Completada,Internet Satelital + TV Digital Satelital + EduTa
860061600,860061600 ESCUELA Nº424 JUAN ABUTTI,QUEBRACHOS,Santiago del Estero,13/11/17,-29.22813050,-63.40095980,Completada,Internet Satelital + TV Digital Satelital + EduTa
860032301,860032301 Unidad Penitenciaria Provincial N° 3,SAN MARTIN,Santiago del Estero,13/11/17,-27.96820140,-64.06946490,Completada,Internet Satelital + TV Digital Satelital + EduTa
860201100,860201100 JARDIN DE INFANTES Nº 206 LA TORTUGA MANUELITA,JIMENEZ,Santiago del Estero,13/11/17,-26.72557240,-64.39322210,Completada,Internet Satelital + TV Digital Satelital + EduTa
860188900,860188900 JARDIN DE INFANTES N° 130 MIS POLLITOS,QUEBRACHOS,Santiago del Estero,13/11/17,-29.38133230,-63.47514130,Completada,Internet Satelital + TV Digital Satelital + EduTa
660047800,660047800 MARIA DEL ROSARIO DE SAN NICOLAS EX N° 38,RIVADAVIA,Salta,14/11/17,-24.22172200,-62.67083300,Completada,Internet Satelital + TV Digital Satelital + EduTa
860064300,860064300 ESCUELA Nº584,QUEBRACHOS,Santiago del Estero,14/11/17,-27.14598600,-64.37765000,Completada,Internet Satelital + TV Digital Satelital + EduTa
860195800,860195800 CENTRO EDUCATIVO DE EDUC. PARA ADULTOS Nº157,JIMENEZ,Santiago del Estero,14/11/17,-26.72294690,-64.39528040,Completada,Internet Satelital + TV Digital Satelital + EduTa
860209700,860209700 CENTRO DE EDUCACION PARA ADULTOS N°194,QUEBRACHOS,Santiago del Estero,14/11/17,-29.38466070,-63.46501410,Completada,Internet Satelital + TV Digital Satelital + EduTa
860178100,860178100 ESCUELA DE CAPACITACION N° 3 NUESTRA SEÑORA DE LA CONSOLACION,QUEBRACHOS,Santiago del Estero,14/11/17,-29.38456330,-63.46508780,Completada,Internet Satelital + TV Digital Satelital + EduT
660047900,660047900 ESCUELA Nº 4252 EX N° 388,RIVADAVIA,Salta,15/11/17,-24.31015553,-62.49148789,Completada,Internet Satelital + TV Digital Satelital + EduT
660048200,660048200 ESCUELA Nº 4335 EX N° 524,RIVADAVIA,Salta,15/11/17,-24.27357663,-62.58900218,Completada,Internet Satelital + TV Digital Satelital + EduT
660076300,660076300 17 DE AGOSTO EX N°191,RIVADAVIA,Salta,15/11/17,-23.03768333,-62.91713333,Completada,Internet Satelital + TV Digital Satelital + EduTa
860060900,860060900 ESCUELA Nº920,QUEBRACHOS,Santiago del Estero,15/11/17,-29.40338333,-63.52521667,Completada,Internet Satelital + TV Digital Satelital + EduTa
860049700,860049700 ESCUELA N° 1096 ARMADA NACIONAL,SILIPICA,Santiago del Estero,15/11/17,-27.99339890,-64.20783530,Completada,Internet Satelital + TV Digital Satelital + EduTa
860049400,860049400 ESCUELA N° 72 JUAN JOSE LAMI,SILIPICA,Santiago del Estero,15/11/17,-28.02619130,-64.22565420,Completada,Internet Satelital + TV Digital Satelital + EduTa
660093600,660093600 PRIMERA JUNTA EX N° 398,RIVADAVIA,Salta,16/11/17,-24.19403000,-63.23119000,Completada,Internet Satelital + TV Digital Satelital + EduTa
860202500,860202500 JARDIN DE INFANTES Nº 157 NIÑO JESUS,SILIPICA,Santiago del Estero,16/11/17,-28.17471860,-64.19885700,Completada,Internet Satelital + TV Digital Satelital + EduT
860061000,860061000 ESCUELA Nº181 VIRGEN DE SUMAMPA,QUEBRACHOS,Santiago del Estero,16/11/17,-28.94617409,-63.71502678,Completada,Internet Satelital + TV Digital Satelital + EduTa
860062100,860062100 ESCUELA Nº 793,QUEBRACHOS,Santiago del Estero,17/11/17,-29.21104000,-63.32919000,Completada,Internet Satelital + TV Digital Satelital + EduTa
860062800,860062800 ESCUELA Nº850 ANDRES A.FIGUEROA,QUEBRACHOS,Santiago del Estero,17/11/17,-29.53624164,-63.23745362,Completada,Internet Satelital + TV Digital Satelital + EduTa
860195200,860195200 CENTRO EDUCATIVO DE EDUC. PARA ADULTOS Nº148,JIMENEZ,Santiago del Estero,17/11/17,-27.16772940,-64.49290320,Completada,Internet Satelital + TV Digital Satelital + EduTa
860207800,860207800 ESCUELA DE CAPACITACION Nº 40,JIMENEZ,Santiago del Estero,17/11/17,-27.16757820,-64.49295030,Completada,Internet Satelital + TV Digital Satelital + EduTa
860061100,860061100 ESCUELA N° 176 ESTANISLAO DEL CAMPO,QUEBRACHOS,Santiago del Estero,17/11/17,-29.16127703,-63.70302980,Completada,Internet Satelital + TV Digital Satelital + EduTa
860065000,860065000 ESCUELA N° 280,JIMENEZ,Santiago del Estero,17/11/17,-27.15130980,-64.60298270,Completada,Internet Satelital + TV Digital Satelital + EduTa
860062300,860062300 ESCUELA Nº522,QUEBRACHOS,Santiago del Estero,18/11/17,-29.21050600,-63.32897500,Completada,Internet Satelital + TV Digital Satelital + EduTa
860062200,860062200 ESCUELA N° 1089,QUEBRACHOS,Santiago del Estero,19/11/17,-29.29766716,-63.27115623,Completada,Internet Satelital + TV Digital Satelital + EduTa
860064000,860064000 ESCUELA N° 642,QUEBRACHOS,Santiago del Estero,19/11/17,-29.41845250,-63.17068126,Completada,Internet Satelital + TV Digital Satelital + EduTa
860064900,860064900 ESCUELA N° 1100 EJERCITO ARGENTINO,JIMENEZ,Santiago del Estero,21/11/17,-27.18779230,-64.60904510,Completada,Internet Satelital + TV Digital Satelital + EduTa
860050200,860050200 ESCUELA N° 121 DANTE ALIGHIERI,SILIPICA,Santiago del Estero,22/11/17,-28.06712300,-64.21751880,Completada,Internet Satelital + TV Digital Satelital + EduTa
100084700,100084700 ESCUELA SECUNDARIA PARA JOVENES Y ADULTOS Nª2,ANCASTI,Catamarca,23/11/17,-28.81152110,-65.50109190,Completada,Internet Satelital + TV Digital Satelital + EduTa
380010400,380010400 ESCUELA N 18 REPUBLICA DE CHILE,SAN ANTONIO,Jujuy,23/11/17,-24.28906700,-65.40745300,Completada,Internet Satelital + TV Digital Satelital + EduTac
100080904,100080904 ESCUELA Nª249 RAMON S. CASTILLO,ANCASTI,Catamarca,24/11/17,-28.81146970,-65.50112110,Completada,Internet Satelital + TV Digital Satelital + EduTa
380010700,380010700 ESCUELA N 394 DR. TEOFILO SANCHEZ DE BUSTAMANTE,EL CARMEN,Jujuy,24/11/17,-24.34983240,-65.24677760,Completada,Internet Satelital + TV Digital Satelital + EduTac
860069600,860069600 ESCUELA N° 50 GOBERNADOR PALACIOS,JIMENEZ,Santiago del Estero,27/11/17,-27.08719530,-64.46921230,Completada,Internet Satelital + TV Digital Satelital + EduTa
380010200,380010200 ESCUELA N 283 DR. JOSE HUMBERTO MARTIARENA,SAN ANTONIO,Jujuy,27/11/17,-24.34832350,-65.28019230,Completada,Internet Satelital + TV Digital Satelital + EduTac
900093000,900093000 ESC. Nro.  215 VIRGEN DE LA MERCED,TAFI VIEJO,Tucumán,27/11/17,-26.74234870,-65.56284810,Completada,Internet Satelital + TV Digital Satelital + EduTa
860071100,860071100 ESCUELA N° 189 MARTIN RODRIGUEZ,JIMENEZ,Santiago del Estero,28/11/17,-26.72427000,-64.44680000,Completada,Internet Satelital + TV Digital Satelital + EduTa
860142600,860142600 ESCUELA Nº 651 / JI 515,QUEBRACHOS,Santiago del Estero,28/11/17,-29.18541667,-63.57223333,Completada,Internet Satelital + TV Digital Satelital + EduTa
860072700,860072700 ESCUELA Nº 811,SAN MARTIN,Santiago del Estero,28/11/17,-28.21514920,-64.05431400,Completada,Internet Satelital + TV Digital Satelital + EduTa
860215201,860215201 AGRUPAMIENTO Nº 86010 ESC Nº 176,QUEBRACHOS,Santiago del Estero,28/11/17,-29.24176723,-63.61307296,Completada,Internet Satelital + TV Digital Satelital + EduT
860215205,860215205 AGRUPAMIENTO Nº 86010 ESC Nº 651,QUEBRACHOS,Santiago del Estero,28/11/17,-26.28631727,-64.41833596,Completada,Internet Satelital + TV Digital Satelital + EduT
860215202,860215202 AGRUPAMIENTO Nº 86010 ESC Nº 828,QUEBRACHOS,Santiago del Estero,28/11/17,-29.25516667,-63.71000000,Completada,Internet Satelital + TV Digital Satelital + EduT
100084701,100084701 ESCUELA SECUNDARIA PARA JOVENES Y ADULTOS Nª2 - ANEXO LA MAJADA,ANCASTI,Catamarca,28/11/17,-28.93128310,-65.09969640,Completada,Internet Satelital + TV Digital Satelital + EduTa
380004900,380004900 ESCUELA N 178 NICOLAS LAMAS,EL CARMEN,Jujuy,28/11/17,-24.51826520,-65.06481420,Completada,Internet Satelital + TV Digital Satelital + EduTac
860061500,860061500 ESCUELA Nº828,QUEBRACHOS,Santiago del Estero,28/11/17,-29.32947000,-63.45177000,Completada,Internet Satelital + TV Digital Satelital + EduTa
460033100,460033100 ESC.Nro. 294 JOSE DARRAGUEIRA,CHAMICAL,La Rioja,29/11/17,-30.14930300,-65.86526200,Completada,Internet Satelital + TV Digital Satelital + EduTac
860207300,860207300 JARDIN DE INFANTES Nº 139,SILIPICA,Santiago del Estero,29/11/17,-28.02808640,-64.22491460,Completada,Internet Satelital + TV Digital Satelital + EduTa
860072400,860072400 ESCUELA N° 183 25 DE MAYO,SAN MARTIN,Santiago del Estero,29/11/17,-28.23880556,-63.75522222,Completada,Internet Satelital + TV Digital Satelital + EduTa
100080905,100080905 ESCUELA Nª214 DINA PEREA DE APARICIO,ANCASTI,Catamarca,29/11/17,-28.74756350,-65.54762650,Completada,Internet Satelital + TV Digital Satelital + EduTa
860142900,860142900 ESCUELA Nº869,QUEBRACHOS,Santiago del Estero,29/11/17,-27.12997000,-64.70450000,Completada,Internet Satelital + TV Digital Satelital + EduTa
860068700,860068700 ESCUELA N° 536,SAN MARTIN,Santiago del Estero,29/11/17,-28.27938000,-63.94281000,Completada,Internet Satelital + TV Digital Satelital + EduTa
380001900,380001900 ESCUELA N 343 CABO HUMBERTO CESAR ALEMAN HEROE DE MALVINAS,EL CARMEN,Jujuy,29/11/17,-24.53379010,-64.98485480,Completada,Internet Satelital + TV Digital Satelital + EduTac
860071600,860071600 ESCUELA N°318,JIMENEZ,Santiago del Estero,30/11/17,-27.57207790,-64.13285160,Completada,Internet Satelital + TV Digital Satelital + EduTa
860215203,860215203 AGRUPAMIENTO Nº 86010 ESC Nº 850,QUEBRACHOS,Santiago del Estero,30/11/17,-29.24177778,-63.61308333,Completada,Internet Satelital + TV Digital Satelital + EduT
220148900,220148900 JARDIN DE INFANTES Nº  125-VICTOR R.BARNES,TAPENAGA,Chaco,30/11/17,-27.65564750,-59.85834600,Completada,Internet Satelital + TV Digital Satelital + EduTa
860223203,860223203 Agrupamiento 86162 Esc. N° 181,QUEBRACHOS,Santiago del Estero,30/11/17,-29.10364600,-63.48275000,Completada,Internet Satelital + TV Digital Satelital + EduTa
380015600,380015600 ESCUELA N 11 TTE. GRAL. BARTOLOME MITRE,EL CARMEN,Jujuy,30/11/17,-24.39445740,-65.19877340,Completada,Internet Satelital + TV Digital Satelital + EduTac
900027200,900027200 ESC. Nro.  350 - SAN JOSÉ DE CHASQUIVIL,TAFI VIEJO,Tucumán,30/11/17,-26.68913210,-65.60449120,Completada,Internet Satelital + TV Digital Satelital + EduT
100036600,100036600 ESCUELA N° 262 JOSÉ LISANDRO ARGAÑARAZ,ANCASTI,Catamarca,30/11/17,-28.92694580,-65.52074880,Completada,Internet Satelital + TV Digital Satelital + Edu
860063300,860063300 ESCUELA Nº1205,QUEBRACHOS,Santiago del Estero,30/11/17,-29.59496000,-63.23722000,Completada,Internet Satelital + TV Digital Satelital + EduTa
860071500,860071500 ESCUELA N° 572,JIMENEZ,Santiago del Estero,01/12/17,-27.57207790,-64.13285160,Completada,Internet Satelital + TV Digital Satelital + EduTa
660018300,660018300 ESCUELA Nª 4474 EX N° 678,ROSARIO DE LERMA,Salta,01/12/17,-24.35135668,-66.02453233,Completada,Internet Satelital + TV Digital Satelital + EduT
860223505,860223505 Agrupamiento 86008 Esc. N° 600,QUEBRACHOS,Santiago del Estero,01/12/17,-29.78763333,-63.18543333,Completada,Internet Satelital + TV Digital Satelital + EduTa
380002000,380002000 ESCUELA N 323 MAESTROS ARGENTINOS,EL CARMEN,Jujuy,01/12/17,-24.49937310,-64.95806240,Completada,Internet Satelital + TV Digital Satelital + EduTac
860062900,860062900 ESCUELA N° 600 14 de Mayo,QUEBRACHOS,Santiago del Estero,03/12/17,-29.73863000,-62.98209000,Completada,Internet Satelital + TV Digital Satelital + EduTa
860146100,860146100 ESCUELA N° 141 NUESTRA SEÑORA DE LUJAN,SAN MARTIN,Santiago del Estero,04/12/17,-28.33826540,-64.02803880,Completada,Internet Satelital + TV Digital Satelital + EduT
860148500,860148500 ESCUELA N° 136 9 DE JULIO,SAN MARTIN,Santiago del Estero,04/12/17,-27.88402880,-63.96658420,Completada,Internet Satelital + TV Digital Satelital + EduTa
860215104,860215104 AGRUPAMIENTO Nº 86135 ESC Nº 141,SAN MARTIN,Santiago del Estero,04/12/17,-28.31389630,-64.00224660,Completada,Internet Satelital + TV Digital Satelital + EduT
860223907,860223907 Agrupamiento 86048 y 86049 Esc. N° 1092,GUASAYAN,Santiago del Estero,05/12/17,-26.18889293,-64.20399687,Completada,Internet Satelital + TV Digital Satelital + EduTa
220033802,220033802 JARDIN DE INFANTES Nº 80 MAGDALENA GUEMES DE TEJADA,SAN LORENZO,Chaco,05/12/17,-27.28829990,-60.40764120,Completada,Internet Satelital + TV Digital Satelital + EduTa
660117900,660117900 CENTRO DE CAPACITACION LABORAL Nº 7136 EX 51,SAN CARLOS,Salta,05/12/17,-25.89871750,-65.93182840,Completada,Internet Satelital + TV Digital Satelital + EduTa
61142300,061142300 SCUELA PRIMARIA Nº14 JULIO ARGENTINO ROCA,PILA,Buenos Aires,05/12/17,-36.51610013,-58.22245993,Completada,Internet Satelital + TV Digital Satelital + EduTa
60533100,060533100 SCUELA PRIMARIA Nº9 RAFAEL OBLIGADO,PILA,Buenos Aires,05/12/17,-36.41173795,-58.30354618,Completada,Internet Satelital + TV Digital Satelital + EduTa
220104000,220104000 E.E.P. Nº  736 -TEODORO GUILLERMO ROMAÑUK-,GENERAL GUEMES,Chaco,05/12/17,-25.70828540,-60.86622860,Completada,Internet Satelital + TV Digital Satelital + EduT
860100400,860100400 ESCUELA N° 1092 J/427,GUASAYAN,Santiago del Estero,05/12/17,-28.12326667,-64.78335000,Completada,Internet Satelital + TV Digital Satelital + EduTa
860070100,860070100 ESCUELA N° 238 INFANTE TRISTAN ARGAÑARAZ,JIMENEZ,Santiago del Estero,06/12/17,-27.19713940,-64.47965950,Completada,Internet Satelital + TV Digital Satelital + EduT
860070200,860070200 ESCUELA N° 931,JIMENEZ,Santiago del Estero,06/12/17,-27.22925880,-64.71468250,Completada,Internet Satelital + TV Digital Satelital + EduTa
100049700,100049700 ESCUELA N° 379,ANCASTI,Catamarca,06/12/17,-29.08600330,-65.09114350,Completada,Internet Satelital + TV Digital Satelital + EduTa
660064400,660064400 ESCUELA Nº4285 EX N°445,SAN CARLOS,Salta,06/12/17,-25.84421500,-65.91963850,Completada,Internet Satelital + TV Digital Satelital + EduT
660002500,660002500 PASTORCITOS DE FATIMA EX N° 582,SAN CARLOS,Salta,06/12/17,-25.71264350,-66.00468800,Completada,Internet Satelital + TV Digital Satelital + EduTa
220022700,220022700 E.E.P. Nº  97,GENERAL GUEMES,Chaco,06/12/17,-25.64921010,-60.92788670,Completada,Internet Satelital + TV Digital Satelital + EduTa
220030601,220030601 E.E.P. Nº 689 -ALEJANDRA POPIKA-,SAN LORENZO,Chaco,07/12/17,-27.11049830,-60.29507000,Completada,Internet Satelital + TV Digital Satelital + EduTa
100036300,100036300 ESCUELA N° 20 JOSE M.FIGUEROA CACERES,ANCASTI,Catamarca,07/12/17,-28.80032310,-65.54625490,Completada,Internet Satelital + TV Digital Satelital + EduTa
60533200,060533200 SCUELA PRIMARIA Nº8 GENERAL JOSE DE SAN MARTIN,PILA,Buenos Aires,07/12/17,-36.17550315,-58.57918505,Completada,Internet Satelital + TV Digital Satelital + EduTa
60964500,060964500 ARDIN DE INFANTES Nº905,AYACUCHO,Buenos Aires,07/12/17,-36.54829020,-58.53479211,Completada,Internet Satelital + TV Digital Satelital + EduTa
860216710,860216710 Agrupamiento N° 86035 - Esc. N° 708,GUASAYAN,Santiago del Estero,07/12/17,-27.67495000,-64.72570000,Completada,Internet Satelital + TV Digital Satelital + EduT
220022200,220022200 E.E.P. Nº  819,GENERAL GUEMES,Chaco,08/12/17,-25.64193360,-60.93346120,Completada,Internet Satelital + TV Digital Satelital + EduTa
860143207,860143207 AGRUPAMIENTO Nº 86033 ESC Nº 161,JIMENEZ,Santiago del Estero,11/12/17,-27.29578000,-64.60813000,Completada,Internet Satelital + TV Digital Satelital + EduT
860143206,860143206 AGRUPAMIENTO Nº 86033 ESC Nº 931,JIMENEZ,Santiago del Estero,11/12/17,-27.16310755,-64.66737698,Completada,Internet Satelital + TV Digital Satelital + EduT
860223700,860223700 Agrupamiento 86126 con Sede en Esc. N° 1013,SILIPICA,Santiago del Estero,11/12/17,-28.03651318,-64.09779978,Completada,Internet Satelital + TV Digital Satelital + EduTa
860223701,860223701 Agrupamiento 86126 Esc. N° 121,SILIPICA,Santiago del Estero,11/12/17,-28.10920439,-64.14667204,Completada,Internet Satelital + TV Digital Satelital + EduTa
660023200,660023200 CANDELARIO NUÑEZ BUSTAMANTE EX N° 756,GUACHIPAS,Salta,11/12/17,-25.62495840,-65.61244130,Completada,Internet Satelital + TV Digital Satelital + EduT
860143209,860143209 AGRUPAMIENTO Nº 86033 ESC Nº 166,JIMENEZ,Santiago del Estero,11/12/17,-27.15750000,-64.78865000,Completada,Internet Satelital + TV Digital Satelital + EduT
860143211,860143211 AGRUPAMIENTO Nº 86033 ESC Nº 49,JIMENEZ,Santiago del Estero,11/12/17,-27.19498000,-64.81227000,Completada,Internet Satelital + TV Digital Satelital + EduT
140139500,140139500 ESTADOS UNIDOS DEL BRASIL,TULUMBA,Córdoba,11/12/17,-30.14876600,-64.03625930,Completada,Internet Satelital + TV Digital Satelital + EduTa
860143204,860143204 AGRUPAMIENTO Nº 86033 ESC Nº 452,JIMENEZ,Santiago del Estero,12/12/17,-27.21090540,-64.75786810,Completada,Internet Satelital + TV Digital Satelital + EduT
860214507,860214507 AGRUPAMIENTO Nº 86036 ESC Nº 653,JIMENEZ,Santiago del Estero,12/12/17,-25.90570000,-63.70832000,Completada,Internet Satelital + TV Digital Satelital + EduT
860143000,860143000 ESCUELA Nº 49 JOSE IGNACIO GORRITI,JIMENEZ,Santiago del Estero,12/12/17,-27.15749680,-64.78883750,Completada,Internet Satelital + TV Digital Satelital + EduTa
860213701,860213701 AGRUPAMIENTO Nº 86127 ESC Nº 15,SILIPICA,Santiago del Estero,12/12/17,-28.16829000,-64.15636000,Completada,Internet Satelital + TV Digital Satelital + EduT
860070700,860070700 ESCUELA N° 621 DR MELITON CAMAÑO,JIMENEZ,Santiago del Estero,12/12/17,-26.90338280,-64.73050300,Completada,Internet Satelital + TV Digital Satelital + EduT
100065600,100065600 ESCUELA N° 399,ANCASTI,Catamarca,12/12/17,-29.00574662,-65.46350950,Completada,Internet Satelital + TV Digital Satelital + EduTa
140047700,140047700 ARISTOBULO DEL VALLE,TULUMBA,Córdoba,12/12/17,-30.38032750,-64.04178500,Completada,Internet Satelital + TV Digital Satelital + EduTa
660128304,660128304 B..S.P.A. Anexo Molinos,MOLINOS,Salta,12/12/17,-25.44133710,-66.29165610,Completada,Internet Satelital + TV Digital Satelital + EduTac
660164000,660164000 Escuela Nº 4855,MOLINOS,Salta,12/12/17,-25.39827950,-66.39181000,Completada,Internet Satelital + TV Digital Satelital + EduTa
100080804,100080804 ESCUELA Nª277 NICOLAS AVELLANEDA,EL ALTO,Catamarca,12/12/17,-28.40241790,-65.10078570,Completada,Internet Satelital + TV Digital Satelital + EduTa
860143205,860143205 AGRUPAMIENTO Nº 86033 ESC Nº 90,JIMENEZ,Santiago del Estero,13/12/17,-27.12026923,-64.76990861,Completada,Internet Satelital + TV Digital Satelital + EduT
860223703,860223703 Agrupamiento 86126 Esc. N° 6,SILIPICA,Santiago del Estero,13/12/17,-28.10551667,-64.14133333,Completada,Internet Satelital + TV Digital Satelital + EduTa
860213703,860213703 AGRUPAMIENTO Nº 86127 ESC Nº 218,SILIPICA,Santiago del Estero,13/12/17,-28.16763333,-64.15381667,Completada,Internet Satelital + TV Digital Satelital + EduT
860143208,860143208 AGRUPAMIENTO Nº 86033 ESC Nº 599,JIMENEZ,Santiago del Estero,13/12/17,-27.14833480,-64.77866390,Completada,Internet Satelital + TV Digital Satelital + EduT
860165100,860165100 ESCUELA N° 786,GUASAYAN,Santiago del Estero,13/12/17,-28.06767348,-64.68008227,Completada,Internet Satelital + TV Digital Satelital + EduTa
140216900,140216900 ESCUELA LEOPOLDO LUGONES,TULUMBA,Córdoba,13/12/17,-30.42562653,-63.80414770,Completada,Internet Satelital + TV Digital Satelital + EduTa
140546817,140546817 CENTRO DE CAPACITACION LABORAL Y FORMACION PROFESIONAL CORDOBA ANEXO EXTENSION AULICA LUCIO V. MANSILLA,TULUMBA,Córdoba,13/12/17,-29.83927770,-64.67457180,Completada,Internet Satelital + TV Digital Satelital + EduTa
100080801,100080801 ESCUELA Nª132,EL ALTO,Catamarca,13/12/17,-28.41549920,-65.09077260,Completada,Internet Satelital + TV Digital Satelital + EduTa
660128303,660128303 B.S.P.A. Anexo Seclantas,MOLINOS,Salta,13/12/17,-25.33084130,-66.24547710,Completada,Internet Satelital + TV Digital Satelital + EduTac
60461800,060461800 SCUELA PRIMARIA Nº27 JOSE HERNANDEZ,AYACUCHO,Buenos Aires,13/12/17,-36.55436781,-58.53358301,Completada,Internet Satelital + TV Digital Satelital + EduTa
60502000,060502000 ARDIN DE INFANTES Nº908 BASILIO VILLARINO,PATAGONES,Buenos Aires,13/12/17,-40.55124380,-62.23984820,Completada,Internet Satelital + TV Digital Satelital + EduTa
660134705,660134705 SEDE DINAMICA DE GUACHIPAS 6037-05,GUACHIPAS,Salta,13/12/17,-22.31737000,-62.64649000,Completada,Internet Satelital + TV Digital Satelital + EduTac
860215103,860215103 AGRUPAMIENTO Nº 86135 ESC Nº 403,SAN MARTIN,Santiago del Estero,14/12/17,-28.31185720,-63.99441910,Completada,Internet Satelital + TV Digital Satelital + EduT
860138100,860138100 ESCUELA N° 1059,SILIPICA,Santiago del Estero,14/12/17,-28.03635200,-64.09777570,Completada,Internet Satelital + TV Digital Satelital + EduTa
860223500,860223500 Agrupamiento 86008 con Sede en Esc. N° 825,QUEBRACHOS,Santiago del Estero,14/12/17,-29.73191667,-63.21775000,Completada,Internet Satelital + TV Digital Satelital + EduTa
220019201,220019201 E.E.P. Nº 508,TAPENAGA,Chaco,14/12/17,-27.52831100,-59.57173200,Completada,Internet Satelital + TV Digital Satelital + EduTa
700008200,700008200 BATALLA DE SUIPACHA,SARMIENTO,San Juan,14/12/17,-32.09312634,-68.61913962,Completada,Internet Satelital + TV Digital Satelital + EduTac
380001800,380001800 ESCUELA N 173 AMERICA DEL SUR,EL CARMEN,Jujuy,14/12/17,-24.48162590,-64.96644290,Completada,Internet Satelital + TV Digital Satelital + EduTac
860100600,860100600 ESCUELA Nº146 RICARDO GUTIERREZ,GUASAYAN,Santiago del Estero,14/12/17,-27.55839000,-63.00868000,Completada,Internet Satelital + TV Digital Satelital + EduTa
860098700,860098700 ESCUELA N° 53 PEDRO BRAVO DE RUEDA,GUASAYAN,Santiago del Estero,14/12/17,-28.03520000,-64.58570000,Completada,Internet Satelital + TV Digital Satelital + EduTa
860099900,860099900 ESCUELA Nº586,GUASAYAN,Santiago del Estero,14/12/17,-27.81766629,-64.86744527,Completada,Internet Satelital + TV Digital Satelital + EduTa
140467000,140467000 CEDER SAN FRANCISCO DEL CHAÑAR,SOBREMONTE,Córdoba,14/12/17,-29.78713110,-63.94434190,Completada,Internet Satelital + TV Digital Satelital + EduT
300005000,300005000 SANTIAGO DEL ESTERO 14,VILLAGUAY,Entre Ríos,14/12/17,-31.37112042,-58.90076148,Completada,Internet Satelital + TV Digital Satelital + EduTa
100080805,100080805 ESCUELA Nª380 DR MANUEL TAPIA ARIAS,EL ALTO,Catamarca,14/12/17,-28.37480440,-65.15876000,Completada,Internet Satelital + TV Digital Satelital + EduTa
860146200,860146200 ESCUELA N° 556 / JI 854,SAN MARTIN,Santiago del Estero,15/12/17,-29.59601000,-62.65510000,Completada,Internet Satelital + TV Digital Satelital + EduTa
860053200,860053200 ESCUELA N° 102 PROVINCIA DE CORDOBA,OJO DE AGUA,Santiago del Estero,15/12/17,-29.35286000,-63.76727000,Completada,Internet Satelital + TV Digital Satelital + EduTa
700008300,700008300 OLEGARIO VICTOR ANDRADE,SARMIENTO,San Juan,15/12/17,-32.06394288,-68.58957173,Completada,Internet Satelital + TV Digital Satelital + EduTac
860215102,860215102 AGRUPAMIENTO Nº 86135 ESC Nº 556,SAN MARTIN,Santiago del Estero,15/12/17,-28.25726667,-63.03463333,Completada,Internet Satelital + TV Digital Satelital + EduT
860210806,860210806 AGRUPAMIENTO 86001 - ESCUELA N° 102,OJO DE AGUA,Santiago del Estero,15/12/17,-29.32255041,-63.92669497,Completada,Internet Satelital + TV Digital Satelital + EduTa
860215100,860215100 AGRUPAMIENTO Nº 86135 SEDE EN ESC Nº 139,SAN MARTIN,Santiago del Estero,15/12/17,-28.26211844,-64.03549732,Completada,Internet Satelital + TV Digital Satelital + EduT
140242100,140242100 ESCUELA MARIA EVA DUARTE,TULUMBA,Córdoba,15/12/17,-31.47347340,-64.20253870,Completada,Internet Satelital + TV Digital Satelital + EduTa
380007500,380007500 ESCUELA N 252 PROVINCIA DE SALTA,EL CARMEN,Jujuy,15/12/17,-24.47402720,-65.07324150,Completada,Internet Satelital + TV Digital Satelital + EduTac
380044300,380044300 BACHILLERATO PROVINCIAL N 14 JUAN MINETTI,EL CARMEN,Jujuy,15/12/17,-24.48100870,-64.96917150,Completada,Internet Satelital + TV Digital Satelital + EduTac
61151300,061151300 SCUELA PRIMARIA Nº13 GRAL. MANUEL BELGRANO,PATAGONES,Buenos Aires,15/12/17,-40.55953730,-62.82416660,Completada,Internet Satelital + TV Digital Satelital + EduTa
62126700,062126700 ARDIN DE INFANTES RURAL Nº1,PATAGONES,Buenos Aires,15/12/17,-40.55953730,-62.82416660,Completada,Internet Satelital + TV Digital Satelital + EduTa
860100000,860100000 ESCUELA Nº 708,GUASAYAN,Santiago del Estero,15/12/17,-27.67328333,-64.72403333,Completada,Internet Satelital + TV Digital Satelital + EduTa
860063900,860063900 ESCUELA Nº 438 ANTONIO ROJAS,QUEBRACHOS,Santiago del Estero,18/12/17,-29.43207580,-63.43999550,Completada,Internet Satelital + TV Digital Satelital + EduTa
860147800,860147800 ESCUELA Nº882,SAN MARTIN,Santiago del Estero,18/12/17,-28.19203000,-63.70570000,Completada,Internet Satelital + TV Digital Satelital + EduTa
100080807,100080807 ESCUELA N° 332 FRANCISCA OFELIA PACHECO DE CASTELLANO,EL ALTO,Catamarca,18/12/17,-28.40241790,-65.10078570,Completada,Internet Satelital + TV Digital Satelital + EduTa
860210802,860210802 AGRUPAMIENTO 86001 - ESCUELA N° 51,OJO DE AGUA,Santiago del Estero,19/12/17,-29.21356441,-63.97042970,Completada,Internet Satelital + TV Digital Satelital + EduTa
60505800,060505800 SCUELA PRIMARIA Nº15 TAMBOR DE TACUARI,PATAGONES,Buenos Aires,19/12/17,-40.43244530,-62.42537700,Completada,Internet Satelital + TV Digital Satelital + EduTa
700094103,700094103 JINZ N°1 SARMIENTO - POCITO 20 DE JUNIO,SARMIENTO,San Juan,19/12/17,-31.94285000,-68.47158333,Completada,Internet Satelital + TV Digital Satelital + EduTa
220018900,220018900 E.E.P. Nº 636-JUAN BAUTISTA AMBROSETTI,TAPENAGA,Chaco,19/12/17,-27.32978160,-59.65108440,Completada,Internet Satelital + TV Digital Satelital + EduTa
860063100,860063100 ESCUELA N° 978CORONEL FERNANDEZ,QUEBRACHOS,Santiago del Estero,20/12/17,-29.53622770,-63.23745600,Completada,Internet Satelital + TV Digital Satelital + EduTa
860213705,860213705 AGRUPAMIENTO Nº 86127 ESC Nº 726,SILIPICA,Santiago del Estero,20/12/17,-28.22712000,-64.15020000,Completada,Internet Satelital + TV Digital Satelital + EduT
860138600,860138600 ESCUELA Nº122 JUAN GUTEMBERG,SILIPICA,Santiago del Estero,20/12/17,-28.07268810,-64.21640950,Completada,Internet Satelital + TV Digital Satelital + EduTa
220019200,220019200 E.E.P. Nº 508,TAPENAGA,Chaco,20/12/17,-27.53226450,-59.57500470,Completada,Internet Satelital + TV Digital Satelital + EduTa
300004900,300004900 PROVINCIA DE SAN LUIS 7,VILLAGUAY,Entre Ríos,20/12/17,-31.39711697,-58.96107889,Completada,Internet Satelital + TV Digital Satelital + EduTa
100057800,100057800 ESCUELA N° 276,EL ALTO,Catamarca,20/12/17,-28.48495920,-65.09856050,Completada,Internet Satelital + TV Digital Satelital + EduTa
61151400,061151400 SCUELA PRIMARIA Nº16 NICOLAS AVELLANEDA,PATAGONES,Buenos Aires,20/12/17,-40.82501932,-62.46567150,Completada,Internet Satelital + TV Digital Satelital + EduTa
100058400,100058400 ESCUELA N° 48,EL ALTO,Catamarca,20/12/17,-28.44798661,-65.26571799,Completada,Internet Satelital + TV Digital Satelital + EduTa
860064700,860064700 ESCUELA Nº944,QUEBRACHOS,Santiago del Estero,21/12/17,-29.72438333,-63.06673333,Completada,Internet Satelital + TV Digital Satelital + EduTa
860063500,860063500 ESCUELA Nº285 ANDRES FIGUEROA,QUEBRACHOS,Santiago del Estero,21/12/17,-29.59501100,-63.23733700,Completada,Internet Satelital + TV Digital Satelital + EduTa
860063700,860063700 ESCUELA Nº182 JUAN PESTALOZZI,QUEBRACHOS,Santiago del Estero,21/12/17,-29.61260700,-63.11870200,Completada,Internet Satelital + TV Digital Satelital + EduTa
860223507,860223507 Agrupamiento 86008 Esc. N° 182,QUEBRACHOS,Santiago del Estero,21/12/17,-29.61270961,-63.11872306,Completada,Internet Satelital + TV Digital Satelital + EduTa
100080808,100080808 ESCUELA N° 333,EL ALTO,Catamarca,21/12/17,-28.46583300,-65.19855600,Completada,Internet Satelital + TV Digital Satelital + EduTa
860061800,860061800 ESCUELA Nº820,QUEBRACHOS,Santiago del Estero,22/12/17,-29.32948160,-63.45204370,Completada,Internet Satelital + TV Digital Satelital + EduTa
60546100,060546100 SCUELA PRIMARIA Nº7 FRAY MAMERTO ESQUIU,SAN CAYETANO,Buenos Aires,22/12/17,-38.62683600,-59.54743750,Completada,Internet Satelital + TV Digital Satelital + EduTa
60544300,060544300 SCUELA PRIMARIA Nº11 FRAY LUIS BELTRAN,SAN CAYETANO,Buenos Aires,22/12/17,-38.36062780,-59.79234290,Completada,Internet Satelital + TV Digital Satelital + EduTa
860184600,860184600 ESCUELA Nº1179,QUEBRACHOS,Santiago del Estero,22/12/17,-29.47582120,-63.44576870,Completada,Internet Satelital + TV Digital Satelital + EduTa
380084900,380084900 COLEGIO SECUNDARIO N 40,SAN PEDRO,Jujuy,26/12/17,-24.49949130,-64.70865060,Completada,Internet Satelital + TV Digital Satelital + EduTac
380046600,380046600 ESCUELA N 151 JOSE ANTONIO DE TEZANOS PINTO,SAN PEDRO,Jujuy,26/12/17,-24.39883460,-64.83394220,Completada,Internet Satelital + TV Digital Satelital + EduTac
860215101,860215101 AGRUPAMIENTO Nº 86135 ESC Nº 811,SAN MARTIN,Santiago del Estero,27/12/17,-28.20900000,-64.05258333,Completada,Internet Satelital + TV Digital Satelital + EduT
660128301,660128301 B.S.P.A. ANEXO LA POMA,LA POMA,Salta,27/12/17,-24.72271200,-66.20118990,Completada,Internet Satelital + TV Digital Satelital + EduTac
660133701,660133701 ANEXO DE EDUCACION ESPECIAL Nº 7161-1,LA POMA,Salta,27/12/17,-24.72298480,-66.20169410,Completada,Internet Satelital + TV Digital Satelital + EduTa
140084000,140084000 CONSTANCIO C. VIGIL,TULUMBA,Córdoba,27/12/17,-30.40516934,-63.90066877,Completada,Internet Satelital + TV Digital Satelital + EduTa
140470702,140470702 ESC. ESP. ARNALDO A.J.SOLSONA-ANEXO VILLA DE MARIA,RIO SECO,Córdoba,27/12/17,-29.90621536,-63.72275814,Completada,Internet Satelital + TV Digital Satelital + EduTa
500213001,500213001 MAESTRA BLANCA DE ROSSI DE FREIRE (1-301),SANTA ROSA,Mendoza,27/12/17,-33.24292890,-68.17647970,Completada,Internet Satelital + TV Digital Satelital + EduTac
100058200,100058200 ESCUELA N° 441 EJERCITO ARGENTINO,EL ALTO,Catamarca,27/12/17,-28.33419200,-65.20660000,Completada,Internet Satelital + TV Digital Satelital + EduTa
860061300,860061300 ESCUELA Nº562,QUEBRACHOS,Santiago del Estero,27/12/17,-29.16127778,-63.70302778,Completada,Internet Satelital + TV Digital Satelital + EduTa
540025300,540025300 ESC. Nº 323: OSVALDO M. BENEGAS,SAN JAVIER,Misiones,28/12/17,-27.64916667,-55.18236111,Completada,Internet Satelital + TV Digital Satelital + EduTa
540157300,540157300 NENI Nº 19 (Sede ESC. Nº 137),SAN JAVIER,Misiones,28/12/17,-27.87511111,-55.13458333,Completada,Internet Satelital + TV Digital Satelital + EduT
380054200,380054200 ESCUELA PRIMARIA N 336,LEDESMA,Jujuy,28/12/17,-23.94441370,-64.82238550,Completada,Internet Satelital + TV Digital Satelital + EduTac
500034900,500034900 JOSE NESTOR LENCINAS,SANTA ROSA,Mendoza,28/12/17,-33.36277212,-67.97378607,Completada,Internet Satelital + TV Digital Satelital + EduTac
500219003,500219003 ESCUELA N° 3-495 (C.E.N.S.),SANTA ROSA,Mendoza,28/12/17,-33.34690280,-67.92002980,Completada,Internet Satelital + TV Digital Satelital + EduTa
500230200,500230200 CLYDE ASTUDILLO,SANTA ROSA,Mendoza,28/12/17,-33.34660530,-67.92020290,Completada,Internet Satelital + TV Digital Satelital + EduTac
500267400,500267400 LEONARDO FAVIO JURY,SANTA ROSA,Mendoza,28/12/17,-33.30411590,-68.03670850,Completada,Internet Satelital + TV Digital Satelital + EduTac
660037800,660037800 VIRGEN DE LA SONRISA EX N° 552,ORAN,Salta,29/12/17,-23.91045120,-64.91963850,Completada,Internet Satelital + TV Digital Satelital + EduTa
500029601,500029601 ESCUELA Nº 3-431 (C.E.N.S.),SANTA ROSA,Mendoza,02/01/18,-33.29648650,-68.04830220,Completada,Internet Satelital + TV Digital Satelital + EduTa
820128500,820128500 ESCUELA NRO 1221 LA SOMBRILLA,VERA,Santa Fe,03/01/18,-33.00042230,-60.67304590,Completada,Internet Satelital + TV Digital Satelital + EduTac
540183703,540183703 U.G.L. Nº 03 (Ext. Esc. Nº 81),SAN PEDRO,Misiones,03/01/18,-26.61418330,-54.11157020,Completada,Internet Satelital + TV Digital Satelital + EduT
140047800,140047800 MODESTO MARANZANA MARCHETTI,TULUMBA,Córdoba,03/01/18,-31.47205350,-64.20383710,Completada,Internet Satelital + TV Digital Satelital + EduTa
500219004,500219004 ESCUELA N° 3-495 /C.E.N.S.),SANTA ROSA,Mendoza,03/01/18,-33.19409910,-68.25444050,Completada,Internet Satelital + TV Digital Satelital + EduTa
860146000,860146000 ESCUELA N° 461,SAN MARTIN,Santiago del Estero,04/01/18,-27.74933850,-64.25182270,Completada,Internet Satelital + TV Digital Satelital + EduTa
540183712,540183712 U.G.L. Nº 03 (Ext. Esc. Nº 720),SAN PEDRO,Misiones,04/01/18,-26.98784080,-54.47782760,Completada,Internet Satelital + TV Digital Satelital + EduT
540183700,540183700 U.G.L. Nº 3: San Pedro,SAN PEDRO,Misiones,04/01/18,-26.62486150,-54.11820280,Completada,Internet Satelital + TV Digital Satelital + EduTa
500230201,500230201 CLYDE ASTUDILLO,SANTA ROSA,Mendoza,04/01/18,-33.35127380,-67.90678940,Completada,Internet Satelital + TV Digital Satelital + EduTac
140486202,140486202 C.E.N.M.A. SAN JOSE DE LA DORMIDA ANEXO VILLA TULUMBA,TULUMBA,Córdoba,05/01/18,-30.39543335,-64.12418466,Completada,Internet Satelital + TV Digital Satelital + EduTa
500219000,500219000 ESCUELA Nº 3-495 (C.E.N.S.),SANTA ROSA,Mendoza,05/01/18,-33.11025500,-68.18954120,Completada,Internet Satelital + TV Digital Satelital + EduTa
540183715,540183715 U.G.L. Nº 03 (Ext. Esc. Nº 780),SAN PEDRO,Misiones,08/01/18,-26.61663450,-54.11404490,Completada,Internet Satelital + TV Digital Satelital + EduT
380013100,380013100 ESCUELA N 274,PALPALA,Jujuy,08/01/18,-24.08991850,-65.20206840,Completada,Internet Satelital + TV Digital Satelital + EduTac
500029402,500029402 NICOLAS ROSIER CABRERA,SANTA ROSA,Mendoza,08/01/18,-33.08959800,-68.18909080,Completada,Internet Satelital + TV Digital Satelital + EduTac
500267100,500267100 RAYITO DE SOL,SANTA ROSA,Mendoza,08/01/18,-33.11152980,-68.18778660,Completada,Internet Satelital + TV Digital Satelital + EduTac
540183707,540183707 U.G.L. Nº 03 (Ext. Esc. Nº 397),SAN PEDRO,Misiones,09/01/18,-26.62808850,-54.11779480,Completada,Internet Satelital + TV Digital Satelital + EduT
540183702,540183702 U.G.L. Nº 03 (Ext. Esc. Nº 25),SAN PEDRO,Misiones,09/01/18,-26.62233570,-54.10668340,Completada,Internet Satelital + TV Digital Satelital + EduT
100087502,100087502 ANEXO N°II - SECUNDARIA RURAL N° 13 - ESC. N°346,EL ALTO,Catamarca,09/01/18,-28.63377500,-65.35347200,Completada,Internet Satelital + TV Digital Satelital + Edu
60544500,060544500 ARDIN DE INFANTES Nº902 DON FRANCISCO CASAS,SAN CAYETANO,Buenos Aires,10/01/18,-38.34513760,-59.62340290,Completada,Internet Satelital + TV Digital Satelital + EduTa
100037500,100037500 ESCUELA N° 18,EL ALTO,Catamarca,10/01/18,-28.46899060,-65.77897160,Completada,Internet Satelital + TV Digital Satelital + EduTa
500013700,500013700 NUESTRA SEÑORA DEL CARMEN DE CUYO,SANTA ROSA,Mendoza,10/01/18,-32.95952980,-68.85024820,Completada,Internet Satelital + TV Digital Satelital + EduTa
540183711,540183711 U.G.L. Nº 03 (Ext. Esc. Nº 684),SAN PEDRO,Misiones,11/01/18,-26.62232530,-54.10667910,Completada,Internet Satelital + TV Digital Satelital + EduT
61641400,061641400 ENTRO DE EDUCACION FISICA Nº21 CIUDAD DE SAN CAYET,SAN CAYETANO,Buenos Aires,11/01/18,-38.35953810,-59.62331700,Completada,Internet Satelital + TV Digital Satelital + EduTa
140139700,140139700 HUSARES DE PUEYRREDON,TULUMBA,Córdoba,11/01/18,-30.23980556,-63.94191667,Completada,Internet Satelital + TV Digital Satelital + EduTa
140083800,140083800 ALMIRANTE GUILLERMO BROWN,TULUMBA,Córdoba,12/01/18,-31.47364970,-64.20273290,Completada,Internet Satelital + TV Digital Satelital + EduTa
540091201,540091201 Aula Sat. Nº 01: ESC. Nº 684,SAN PEDRO,Misiones,12/01/18,-26.62232500,-54.10667930,Completada,Internet Satelital + TV Digital Satelital + EduT
540183706,540183706 U.G.L. Nº 03 (Ext. Esc. Nº 384),SAN PEDRO,Misiones,12/01/18,-26.67453333,-54.12581667,Completada,Internet Satelital + TV Digital Satelital + EduT
62318500,062318500 ENTRO DE FORMACION PROFESIONAL Nº401,SAN CAYETANO,Buenos Aires,12/01/18,-38.34311400,-59.60764890,Completada,Internet Satelital + TV Digital Satelital + EduTa
220035200,220035200 E.E.P. Nº  883,GENERAL GUEMES,Chaco,15/01/18,-25.65040680,-60.93043470,Completada,Internet Satelital + TV Digital Satelital + EduTa
140327600,140327600 ESCUELA DOMINGO FAUSTINO SARMIENTO,RIO SECO,Córdoba,15/01/18,-31.47350640,-64.20260630,Completada,Internet Satelital + TV Digital Satelital + EduTa
140369000,140369000 CORNELIO SAAVEDRA,TULUMBA,Córdoba,15/01/18,-31.47360160,-64.20266480,Completada,Internet Satelital + TV Digital Satelital + EduTa
220035202,220035202 E.E.P. Nº  883,GENERAL GUEMES,Chaco,16/01/18,-25.74808500,-61.02775970,Completada,Internet Satelital + TV Digital Satelital + EduTa
100048400,100048400 ESCUELA N° 281,EL ALTO,Catamarca,16/01/18,-28.26373568,-65.35270494,Completada,Internet Satelital + TV Digital Satelital + EduTa
100048800,100048800 CENTRO EDUCATIVO DE NIVEL SECUNDARIO N° 228,EL ALTO,Catamarca,16/01/18,-28.40141069,-65.10194740,Completada,Internet Satelital + TV Digital Satelital + EduTa
100048600,100048600 ESCUELA N° 109,EL ALTO,Catamarca,16/01/18,-28.25000000,-65.28082000,Completada,Internet Satelital + TV Digital Satelital + EduTa
60545300,060545300 SCUELA PRIMARIA Nº9 DOMINGO FAUSTINO SARMIENTO,SAN CAYETANO,Buenos Aires,17/01/18,-38.17850028,-59.43021129,Completada,Internet Satelital + TV Digital Satelital + EduTa
62141300,062141300 ARDIN DE INFANTES RURAL Nº1,SAN CAYETANO,Buenos Aires,17/01/18,-34.45430860,-58.70240610,Completada,Internet Satelital + TV Digital Satelital + EduTa
100038200,100038200 ESCUELA N° 17 MARÍA ISOLINA ARÉVALO,EL ALTO,Catamarca,17/01/18,-28.49338900,-65.32611100,Completada,Internet Satelital + TV Digital Satelital + Edu
140285400,140285400 25 DE MAYO,TULUMBA,Córdoba,17/01/18,-30.34827880,-63.84230148,Completada,Internet Satelital + TV Digital Satelital + EduTa
540169601,540169601 NENI Nº 40 (Ext. ESC. Nº 601),SAN PEDRO,Misiones,18/01/18,-26.62810680,-54.11784450,Completada,Internet Satelital + TV Digital Satelital + EduT
380035100,380035100 ESCUELA N 27 CACIQUE GOB. PEDRO QUIPILDOR,COCHINOCA,Jujuy,18/01/18,-22.98363889,-66.03200000,Completada,Internet Satelital + TV Digital Satelital + EduTac
100037900,100037900 ESCUELA N° 415 MAESTRO MIGUEL ÁNGEL ARÉVALO,EL ALTO,Catamarca,18/01/18,-28.48319928,-65.40534345,Completada,Internet Satelital + TV Digital Satelital + Edu
140374900,140374900 RUBEN DARIO,TULUMBA,Córdoba,19/01/18,-31.47351780,-64.20265360,Completada,Internet Satelital + TV Digital Satelital + EduTa
140217700,140217700 DOCTOR LUIS FEDERICO LELOIR (EX.NAC.Nº 424),TULUMBA,Córdoba,19/01/18,-31.47347540,-64.20254170,Completada,Internet Satelital + TV Digital Satelital + EduT
860171900,860171900 ESCUELA Nº753,SAN MARTIN,Santiago del Estero,22/01/18,-26.12942000,-63.40059000,Completada,Internet Satelital + TV Digital Satelital + EduTa
220023100,220023100 E.E.P. Nº  775,GENERAL GUEMES,Chaco,22/01/18,-25.63610920,-60.26481600,Completada,Internet Satelital + TV Digital Satelital + EduTa
540193300,540193300 NENI Nº 76 (Sede ESC. Nº 910),LEANDRO N. ALEM,Misiones,22/01/18,-27.35665120,-55.89833670,Completada,Internet Satelital + TV Digital Satelital + EduT
140368900,140368900 C.E.N.P.A. N° 10 DE LAS ARRIAS,TULUMBA,Córdoba,22/01/18,-30.32691215,-63.54288184,Completada,Internet Satelital + TV Digital Satelital + EduT
860067900,860067900 ESCUELA Nº907,SAN MARTIN,Santiago del Estero,23/01/18,-28.36040304,-63.97688588,Completada,Internet Satelital + TV Digital Satelital + EduTa
500035900,500035900 LA PAZ,LA PAZ,Mendoza,23/01/18,-33.46027060,-67.54997890,Completada,Internet Satelital + TV Digital Satelital + EduTac
500144500,500144500 ALFONSINA STORNI,LA PAZ,Mendoza,23/01/18,-33.46034330,-67.55049830,Completada,Internet Satelital + TV Digital Satelital + EduTac
500213100,500213100 MAESTRA GRISELDA CLAVERO SEDE,LA PAZ,Mendoza,23/01/18,-33.46347316,-67.56274175,Completada,Internet Satelital + TV Digital Satelital + EduTac
140068200,140068200 JOSE MARMOL,TULUMBA,Córdoba,24/01/18,-31.47358850,-64.20262350,Completada,Internet Satelital + TV Digital Satelital + EduTa
100080800,100080800 ESCUELA SEDE Nª270 GOBERNADOR PACIFICO RODRIGUEZ,EL ALTO,Catamarca,24/01/18,-28.31020721,-65.36479885,Completada,Internet Satelital + TV Digital Satelital + EduTa
100038400,100038400 ESCUELA N° 19,EL ALTO,Catamarca,25/01/18,-28.36985686,-65.44575650,Completada,Internet Satelital + TV Digital Satelital + EduTa
100080803,100080803 ESCUELA Nª206 DOMINGA CARRIZO DE BULACIO,EL ALTO,Catamarca,25/01/18,-28.34981161,-65.40993741,Completada,Internet Satelital + TV Digital Satelital + EduTa
540019801,540019801 Aula Sat. Nº 01: ESC. Nº 554,GENERAL MANUEL BELGRANO,Misiones,25/01/18,-26.40492670,-54.61583580,Completada,Internet Satelital + TV Digital Satelital + EduT
140083200,140083200 TENIENTE GENERAL EDUARDO LONARDI,SOBREMONTE,Córdoba,26/01/18,-29.98635180,-64.01977180,Completada,Internet Satelital + TV Digital Satelital + EduTa
860072200,860072200 ESCUELA Nº816MARIA TELESFORA CAROL DE IBIETA,SAN MARTIN,Santiago del Estero,26/01/18,-28.05145000,-63.85843333,Completada,Internet Satelital + TV Digital Satelital + EduTa
100037700,100037700 ESCUELA N° 205 PEDRO GREGORIO GRAMAJO,EL ALTO,Catamarca,26/01/18,-28.49811100,-65.43241700,Completada,Internet Satelital + TV Digital Satelital + EduTa
100087600,100087600 ESCUELA SECUNDARIA RURAL N°14,EL ALTO,Catamarca,26/01/18,-28.50006440,-65.42957380,Completada,Internet Satelital + TV Digital Satelital + EduTa
540173803,540173803 NENI Nº 38 (Ext. ESC. Nº 790),ELDORADO,Misiones,26/01/18,-26.24518130,-54.60130850,Completada,Internet Satelital + TV Digital Satelital + EduT
100087501,100087501 ANEXO N°I - SECUNDARIA RURAL N° 13 - ESC. N°333,EL ALTO,Catamarca,30/01/18,-28.46785280,-65.21985210,Completada,Internet Satelital + TV Digital Satelital + Edu
100048500,100048500 ESCUELA N° 361 AMALIA REYES ORIBE DE LACROZE,EL ALTO,Catamarca,30/01/18,-28.31484690,-65.36737060,Completada,Internet Satelital + TV Digital Satelital + EduTa
62143200,062143200 ARDIN DE INFANTES RURAL Nº2,SAN CAYETANO,Buenos Aires,31/01/18,-38.30177500,-59.38518670,Completada,Internet Satelital + TV Digital Satelital + EduTa
60545500,060545500 SCUELA PRIMARIA Nº3 JUAN BAUTISTA AZOPARDO,SAN CAYETANO,Buenos Aires,31/01/18,-38.27726240,-59.14979580,Completada,Internet Satelital + TV Digital Satelital + EduTa
500030800,500030800 FRANCISCO CAPDEVILA,LA PAZ,Mendoza,31/01/18,-33.45346380,-67.65015700,Completada,Internet Satelital + TV Digital Satelital + EduTac
540067600,540067600 ESCUELA PROVINCIAL N 891,General Belgrano,Misiones,01/02/18,-27.35635875,-55.89431704,Completada,Internet Satelital + TV Digital Satelital + EduTac
500011400,500011400 PEDRO DEL CASTILLO,SANTA ROSA,Mendoza,01/02/18,-33.16151981,-67.86618057,Completada,Internet Satelital + TV Digital Satelital + EduTac
61661400,061661400 .E.C. DON MANUEL MELENDEZ,SAN CAYETANO,Buenos Aires,01/02/18,-38.34827620,-59.60273640,Completada,Internet Satelital + TV Digital Satelital + EduTac
500029400,500029400 NICOLAS ROSIER CABRERA,SANTA ROSA,Mendoza,01/02/18,-33.19139540,-68.25611740,Completada,Internet Satelital + TV Digital Satelital + EduTac
500029401,500029401 NICOLAS ROSIER CABRERA,SANTA ROSA,Mendoza,01/02/18,-33.29775360,-68.04582100,Completada,Internet Satelital + TV Digital Satelital + EduTac
580044400,580044400 ESCUELA PRIMARIA 228,PICUN LEUFU,Neuquén,01/02/18,-39.34058590,-69.84414230,Completada,Internet Satelital + TV Digital Satelital + EduTa
60546000,060546000 ARDIN DE INFANTES Nº901 FEDERICO FROEBEL,SAN CAYETANO,Buenos Aires,02/02/18,-38.53913290,-59.51691660,Completada,Internet Satelital + TV Digital Satelital + EduTa
860049500,860049500 ESCUELA N° 726 / JI 855,SILIPICA,Santiago del Estero,05/02/18,-28.22293333,-64.15011667,Completada,Internet Satelital + TV Digital Satelital + EduTa
500035000,500035000 ANDRES RODRIGUEZ,SANTA ROSA,Mendoza,05/02/18,-33.34210900,-67.92421290,Completada,Internet Satelital + TV Digital Satelital + EduTac
500246701,500246701 ESCUELA N° 4-254,LAVALLE,Mendoza,05/02/18,-32.81022770,-67.22212740,Completada,Internet Satelital + TV Digital Satelital + EduTa
500100400,500100400 ESTANISLAO DEL CAMPO,LAVALLE,Mendoza,05/02/18,-33.26121710,-68.00844020,Completada,Internet Satelital + TV Digital Satelital + EduTac
540186403,540186403 NENI Nº 65 (Ext. Esc. Nº 339),APOSTOLES,Misiones,05/02/18,-27.70945650,-55.49676390,Completada,Internet Satelital + TV Digital Satelital + EduT
140198600,140198600 GREGORIA MATORRAS,COLON,Córdoba,06/02/18,-31.02180520,-64.11547780,Completada,Internet Satelital + TV Digital Satelital + EduTa
140462200,140462200 C.E.P.E.A. SAN FRANCISCO DEL CHAÑAR,SOBREMONTE,Córdoba,06/02/18,-29.78628333,-63.94050000,Completada,Internet Satelital + TV Digital Satelital + EduT
100046600,100046600 ESCUELA N° 174 CIUDAD DE BONN,EL ALTO,Catamarca,06/02/18,-28.43359700,-65.35027900,Completada,Internet Satelital + TV Digital Satelital + EduTa
100038300,100038300 ESCUELA N° 303 MARÍA LUISA VILLAGRA,EL ALTO,Catamarca,07/02/18,-28.43073557,-65.39447049,Completada,Internet Satelital + TV Digital Satelital + EduT
100044300,100044300 ESCUELA N°313 DON PEDRO CANTALICIO FIGUEROA,EL ALTO,Catamarca,07/02/18,-28.50708000,-65.51532000,Completada,Internet Satelital + TV Digital Satelital + EduTa
500035600,500035600 POR LOS SENDEROS DE LA PATRIA,SANTA ROSA,Mendoza,07/02/18,-32.89974585,-67.69632444,Completada,Internet Satelital + TV Digital Satelital + EduTac
100036000,100036000 ESCUELA N° 232,ANCASTI,Catamarca,08/02/18,-28.85097256,-65.56142751,Completada,Internet Satelital + TV Digital Satelital + EduTa
100049800,100049800 ESCUELA N° 359,ANCASTI,Catamarca,08/02/18,-29.03520000,-65.53950000,Completada,Internet Satelital + TV Digital Satelital + EduTa
500034100,500034100 JUAN BENEDETTI,SANTA ROSA,Mendoza,08/02/18,-33.11350530,-68.20742180,Completada,Internet Satelital + TV Digital Satelital + EduTac
380026700,380026700 ESCUELA N 211 GENDARMERIA NACIONAL,SUSQUES,Jujuy,08/02/18,-23.39330556,-66.80255556,Completada,Internet Satelital + TV Digital Satelital + EduTac
380012800,380012800 ESCUELA N 298 DR PLINIO ZABALA,PALPALA,Jujuy,08/02/18,-24.36956420,-65.11228260,Completada,Internet Satelital + TV Digital Satelital + EduTac
500029403,500029403 NOCOLAS ROSIER CABRERA,SANTA ROSA,Mendoza,09/02/18,-33.25190000,-68.14275000,Completada,Internet Satelital + TV Digital Satelital + EduTac
580008000,580008000 ESCUELA PRIMARIA 249,COLLON CURA,Neuquén,09/02/18,-39.82216340,-70.10004230,Completada,Internet Satelital + TV Digital Satelital + EduTa
100049600,100049600 ESCUELA N° 438,ANCASTI,Catamarca,09/02/18,-29.09885824,-65.55901515,Completada,Internet Satelital + TV Digital Satelital + EduTa
380025700,380025700 ESCUELA N 189 BRIGADIER GRAL. JUAN F QUIROGA,SUSQUES,Jujuy,09/02/18,-23.23080556,-66.34313889,Completada,Internet Satelital + TV Digital Satelital + EduTac
500031400,500031400 JUAN NESTOR MILAN OYOLA,LA PAZ,Mendoza,09/02/18,-33.61311931,-67.42925184,Completada,Internet Satelital + TV Digital Satelital + EduTac
140175900,140175900 CONGRESO DE TUCUMAN,TULUMBA,Córdoba,14/02/18,-30.46143103,-63.55344855,Completada,Internet Satelital + TV Digital Satelital + EduTa
580031900,580031900 ESCUELA PRIMARIA 333 RAMÓN N.CARRIZO BAGNATTI,LONCOPUE,Neuquén,14/02/18,-38.26688170,-70.60274670,Completada,Internet Satelital + TV Digital Satelital + EduT
